{"Barbados": {"addresstype": "country", "display_name": "Barbados", "name": "Barbados", "boundingbox": ["12.8618000", "13.4865000", "-59.8292000", "-59.2456000"], "type": "country", "importance": 0.34667666666666663, "lon": "-59.53586140554421", "lat": "13.172937901683829", "place_rank": 4}, "Dominica": {"addresstype": "country", "display_name": "Dominica", "name": "Dominica", "boundingbox": ["15.0107000", "15.7872000", "-61.6719000", "-61.0447000"], "type": "country", "importance": 0.34667666666666663, "lon": "-61.35423406151542", "lat": "15.40898425469889", "place_rank": 4}, "Göta älv": {"addresstype": "river", "display_name": "Göta älv, Sverige", "name": "Göta älv", "boundingbox": ["57.6809991", "58.3729418", "11.8311385", "12.3813843"], "type": "river", "importance": 0.16000999999999999, "lon": "12.1418989", "lat": "58.0593149", "place_rank": 18}, "Martinique": {"addresstype": "shop", "display_name": "Martinique, Flyginfarten, Barkarbystaden, Söderhöjden, Järfälla kommun, Sollentuna kommun, Stockholms län, 177 38, Sverige", "name": "Martinique", "boundingbox": ["59.4171459", "59.4172459", "17.8569897", "17.8570897"], "type": "clothes", "importance": 9.99999999995449e-06, "lon": "17.8570397", "lat": "59.4171959", "place_rank": 30}, "Neptun": {"addresstype": "neighbourhood", "display_name": "Neptun, Mörbylånga, Mörbylånga kommun, Kalmar län, Sverige", "name": "Neptun", "boundingbox": ["56.5226941", "56.5234584", "16.3709598", "16.3723643"], "type": "neighbourhood", "importance": 0.1333433333333333, "lon": "16.371609900127908", "lat": "56.523087000000004", "place_rank": 20}, "São Tomé e Príncipe": {"addresstype": "country", "display_name": "São Tomé e Príncipe", "name": "São Tomé e Príncipe", "boundingbox": ["-0.1865000", "1.9131000", "6.2928000", "7.6363000"], "type": "country", "importance": 0.34667666666666663, "lon": "6.963929215292581", "lat": "0.8362696314717109", "place_rank": 4}, "Strångsjö": {"addresstype": "railway", "display_name": "Strångsjö, Strångsjövägen, Strångsjö, Katrineholms kommun, Södermanlands län, Sverige", "name": "Strångsjö", "boundingbox": ["58.9020823", "58.9021823", "16.1981384", "16.1982384"], "type": "technical_station", "importance": 9.99999999995449e-06, "lon": "16.1981884", "lat": "58.9021323", "place_rank": 30}, "Japan Tobacco International": {"addresstype": "industrial", "display_name": "Japan Tobacco International, Siene distrikt, Vårgårda, Vårgårda kommun, Västra Götalands län, Sverige", "name": "Japan Tobacco International", "boundingbox": ["58.0229366", "58.0250226", "12.7872249", "12.7903645"], "type": "industrial", "importance": 0.10667666666666664, "lon": "12.788585500841453", "lat": "58.0239757", "place_rank": 22}, "Amerika": {"addresstype": "lake", "display_name": "Amerika, Säters kommun, Dalarnas län, Sverige", "name": "Amerika", "boundingbox": ["60.3162340", "60.3164677", "15.5078513", "15.5081785"], "type": "lake", "importance": 0.1333433333333333, "lon": "15.50795319084365", "lat": "60.31631765", "place_rank": 20}, "England": {"addresstype": "islet", "display_name": "England, Markaryd, Markaryds kommun, Kronobergs län, Sverige", "name": "England", "boundingbox": ["56.4629305", "56.4648508", "13.6057319", "13.6093262"], "type": "islet", "importance": 0.1333433333333333, "lon": "13.60672443198612", "lat": "56.4638883", "place_rank": 20}, "Frankrike": {"addresstype": "isolated_dwelling", "display_name": "Frankrike, Halmby, Uppsala, Uppsala kommun, Uppsala län, 741 52, Sverige", "name": "Frankrike", "boundingbox": ["59.8786803", "59.8787803", "17.8097267", "17.8098267"], "type": "isolated_dwelling", "importance": 0.10667666666666664, "lon": "17.8097767", "lat": "59.8787303", "place_rank": 22}, "Italia": {"addresstype": "country", "display_name": "Italia", "name": "Italia", "boundingbox": ["35.3214000", "47.0921000", "6.6273000", "18.7694000"], "type": "country", "importance": 0.34667666666666663, "lon": "11.678958751584025", "lat": "42.55596908473412", "place_rank": 4}, "Japan": {"addresstype": "islet", "display_name": "Japan, Saxnäs, Vilhelmina kommun, Västerbottens län, Sverige", "name": "Japan", "boundingbox": ["64.9724032", "64.9740190", "15.3545972", "15.3627538"], "type": "islet", "importance": 0.1333433333333333, "lon": "15.359918895365677", "lat": "64.97316570000001", "place_rank": 20}, "Stockholm": {"addresstype": "city", "display_name": "Stockholm, Stockholms kommun, Stockholms län, 111 29, Sverige", "name": "Stockholm", "boundingbox": ["59.1651172", "59.4851172", "17.9110935", "18.2310935"], "type": "city", "importance": 0.20000999999999997, "lon": "18.0710935", "lat": "59.3251172", "place_rank": 15}, "Riksdagshuset": {"addresstype": "office", "display_name": "Riksdagshuset, Riksgatan, Gamla stan, Södermalms stadsdelsområde, Stockholm, Stockholms kommun, Stockholms län, 101 23, Sverige", "name": "Riksdagshuset", "boundingbox": ["59.3271033", "59.3282185", "18.0668271", "18.0692340"], "type": "government", "importance": 9.99999999995449e-06, "lon": "18.068411590132186", "lat": "59.3276416", "place_rank": 30}, "Liden": {"addresstype": "city_district", "display_name": "Liden, Indals-Lidens kommundel, Sundsvalls kommun, Västernorrlands län, Sverige", "name": "Liden", "boundingbox": ["62.6821028", "62.7129700", "16.7950788", "16.8218761"], "type": "administrative", "importance": 0.16000999999999999, "lon": "16.801983644151598", "lat": "62.697547", "place_rank": 18}, "Iris": {"addresstype": "city_block", "display_name": "Iris, Gamla staden, Säter, Säters kommun, Dalarnas län, Sverige", "name": "Iris", "boundingbox": ["60.3470797", "60.3477542", "15.7485546", "15.7498760"], "type": "city_block", "importance": 0.06667666666666666, "lon": "15.74922233449027", "lat": "60.3475854", "place_rank": 25}, "New York": {"addresstype": "isolated_dwelling", "display_name": "New York, Ockelbo kommun, Gävleborgs län, Sverige", "name": "New York", "boundingbox": ["61.0055616", "61.0056616", "16.2024915", "16.2025915"], "type": "isolated_dwelling", "importance": 0.10667666666666664, "lon": "16.2025415", "lat": "61.0056116", "place_rank": 22}, "United Kingdom": {"addresstype": "country", "display_name": "United Kingdom", "name": "United Kingdom", "boundingbox": ["49.6967000", "61.0382000", "-14.0047000", "2.0808000"], "type": "country", "importance": 0.34667666666666663, "lon": "-3.4182603332794694", "lat": "54.75997851208482", "place_rank": 4}, "United States": {"addresstype": "country", "display_name": "United States", "name": "United States", "boundingbox": ["-14.7412000", "71.5680000", "-179.9900000", "179.9900000"], "type": "country", "importance": 0.34667666666666663, "lon": "-113.70839920498176", "lat": "46.56287944026357", "place_rank": 4}, "Magdeburg": {"addresstype": "isolated_dwelling", "display_name": "Magdeburg, Säffle kommun, Värmlands län, 661 93, Sverige", "name": "Magdeburg", "boundingbox": ["59.2226326", "59.2227326", "13.0160392", "13.0161392"], "type": "isolated_dwelling", "importance": 0.10667666666666664, "lon": "13.0160892", "lat": "59.2226826", "place_rank": 22}, "Ryssland": {"addresstype": "islet", "display_name": "Ryssland, Amnehärads distrikt, Gullspångs kommun, Västra Götalands län, Sverige", "name": "Ryssland", "boundingbox": ["59.0080023", "59.0094398", "13.9777761", "13.9814969"], "type": "islet", "importance": 0.1333433333333333, "lon": "13.979553025363435", "lat": "59.008677399999996", "place_rank": 20}, "Brasil": {"addresstype": "country", "display_name": "Brasil", "name": "Brasil", "boundingbox": ["-33.8623000", "5.2696000", "-73.9830000", "-28.6936000"], "type": "country", "importance": 0.34667666666666663, "lon": "-54.519785530608715", "lat": "-13.52234948217256", "place_rank": 4}, "Colombia": {"addresstype": "country", "display_name": "Colombia", "name": "Colombia", "boundingbox": ["-4.2294000", "16.0380000", "-82.1131000", "-66.8511000"], "type": "country", "importance": 0.34667666666666663, "lon": "-72.92744808141691", "lat": "4.654069438418573", "place_rank": 4}, "Guatemala": {"addresstype": "country", "display_name": "Guatemala", "name": "Guatemala", "boundingbox": ["13.5672000", "17.8166000", "-92.3115000", "-88.2134000"], "type": "country", "importance": 0.34667666666666663, "lon": "-90.32288274132561", "lat": "15.763493312296566", "place_rank": 4}, "Gävle kommun": {"addresstype": "municipality", "display_name": "Gävle kommun, Gävleborgs län, Sverige", "name": "Gävle kommun", "boundingbox": ["60.2592052", "61.0895891", "16.7725481", "17.9571570"], "type": "administrative", "importance": 0.2133433333333333, "lon": "17.166667", "lat": "60.7", "place_rank": 14}, "Gävles curlinghall": {"addresstype": "leisure", "display_name": "Gävles curlinghall, 1, Sanatorievägen, Persbacka, Forsby, Gävle, Gävle kommun, Gävleborgs län, 806 46, Sverige", "name": "Gävles curlinghall", "boundingbox": ["60.7077433", "60.7083420", "17.1645835", "17.1655006"], "type": "sports_centre", "importance": 9.99999999995449e-06, "lon": "17.16514339299124", "lat": "60.70811975", "place_rank": 30}, "El Salvador": {"addresstype": "country", "display_name": "El Salvador", "name": "El Salvador", "boundingbox": ["12.9580000", "14.4510000", "-90.2191000", "-87.5971000"], "type": "country", "importance": 0.34667666666666663, "lon": "-88.90138169843183", "lat": "13.6470970258004", "place_rank": 4}, "Baden": {"addresstype": "isolated_dwelling", "display_name": "Baden, Hallsbergs kommun, Örebro län, Sverige", "name": "Baden", "boundingbox": ["58.9439820", "58.9440820", "15.3862032", "15.3863032"], "type": "isolated_dwelling", "importance": 0.10667666666666664, "lon": "15.3862532", "lat": "58.944032", "place_rank": 22}, "Gustav Adolfs torg": {"addresstype": "road", "display_name": "Gustav Adolfs torg, Gamla Staden, Norr, Malmö, Malmö kommun, Skåne län, 205 60, Sverige", "name": "Gustav Adolfs torg", "boundingbox": ["55.6020798", "55.6033322", "12.9991784", "13.0017096"], "type": "pedestrian", "importance": 0.0533433333333333, "lon": "13.001239368620986", "lat": "55.6027124", "place_rank": 26}, "Karlberg": {"addresstype": "suburb", "display_name": "Karlberg, Karlskoga, Karlskoga kommun, Örebro län, 691 37, Sverige", "name": "Karlberg", "boundingbox": ["59.3133696", "59.3533696", "14.4762308", "14.5162308"], "type": "suburb", "importance": 0.14667666666666662, "lon": "14.4962308", "lat": "59.3333696", "place_rank": 19}, "Slottsbacken": {"addresstype": "retail", "display_name": "Slottsbacken, Lyckeby, Karlskrona, Karlskrona kommun, Blekinge län, Sverige", "name": "Slottsbacken", "boundingbox": ["56.1959392", "56.1979799", "15.6467392", "15.6533397"], "type": "retail", "importance": 0.10667666666666664, "lon": "15.650009715035516", "lat": "56.19691385", "place_rank": 22}, "Stockholms län": {"addresstype": "county", "display_name": "Stockholms län, Sverige", "name": "Stockholms län", "boundingbox": ["58.4888901", "60.3007014", "17.2436709", "20.0083835"], "type": "administrative", "importance": 0.24000999999999997, "lon": "18.666007276226473", "lat": "59.3948653", "place_rank": 12}, "Stockholms slott": {"addresstype": "historic", "display_name": "Stockholms slott, 1, Slottsbacken, Gamla stan, Södermalms stadsdelsområde, Stockholm, Stockholms kommun, Stockholms län, 111 31, Sverige", "name": "Stockholms slott", "boundingbox": ["59.3260167", "59.3277679", "18.0695451", "18.0738311"], "type": "castle", "importance": 9.99999999995449e-06, "lon": "18.070321595161158", "lat": "59.32686475", "place_rank": 30}, "Sveriges krona": {"addresstype": "peak", "display_name": "Sveriges krona, Smedjebackens kommun, Dalarnas län, Sverige", "name": "Sveriges krona", "boundingbox": ["60.2044364", "60.2045364", "15.5251556", "15.5252556"], "type": "peak", "importance": 0.16000999999999999, "lon": "15.5252056", "lat": "60.2044864", "place_rank": 18}, "Slottet": {"addresstype": "peak", "display_name": "Slottet, Åre kommun, Jämtlands län, Sverige", "name": "Slottet", "boundingbox": ["63.0242137", "63.0243137", "12.2234351", "12.2235351"], "type": "peak", "importance": 0.16000999999999999, "lon": "12.2234851", "lat": "63.0242637", "place_rank": 18}, "Arboga kommun": {"addresstype": "municipality", "display_name": "Arboga kommun, Västmanlands län, Sverige", "name": "Arboga kommun", "boundingbox": ["59.1979186", "59.5452559", "15.5993835", "15.9972464"], "type": "administrative", "importance": 0.2133433333333333, "lon": "15.8331666", "lat": "59.383435", "place_rank": 14}, "Europa": {"addresstype": "city_block", "display_name": "Europa, Gamla stan, Södermalms stadsdelsområde, Stockholm, Stockholms kommun, Stockholms län, 111 31, Sverige", "name": "Europa", "boundingbox": ["59.3154265", "59.3354265", "18.0630097", "18.0830097"], "type": "city_block", "importance": 0.06667666666666666, "lon": "18.0730097", "lat": "59.3254265", "place_rank": 25}, "Gärdet": {"addresstype": "hamlet", "display_name": "Gärdet, Vikarbyn, Rättviks kommun, Dalarnas län, 795 70, Sverige", "name": "Gärdet", "boundingbox": ["60.8955017", "60.9355017", "14.9877323", "15.0277323"], "type": "hamlet", "importance": 0.1333433333333333, "lon": "15.0077323", "lat": "60.9155017", "place_rank": 20}, "Hammarbyleden": {"addresstype": "fairway", "display_name": "Hammarbyleden, Enskede-Årsta-Vantörs stadsdelsområde, Stockholm, Stockholms kommun, Stockholms län, Sverige", "name": "Hammarbyleden", "boundingbox": ["59.3025018", "59.3143983", "18.0297468", "18.0776195"], "type": "fairway", "importance": 0.1333433333333333, "lon": "18.05176161591905", "lat": "59.3046752643385", "place_rank": 20}, "Kungsträdgården": {"addresstype": "isolated_dwelling", "display_name": "Kungsträdgården, Sidus, Norrköping, Norrköpings kommun, Östergötlands län, 605 91, Sverige", "name": "Kungsträdgården", "boundingbox": ["58.6154327", "58.6155327", "16.3431969", "16.3432969"], "type": "isolated_dwelling", "importance": 0.10667666666666664, "lon": "16.3432469", "lat": "58.6154827", "place_rank": 22}, "Stora Skuggan": {"addresstype": "locality", "display_name": "Stora Skuggan, Lappkärrsberget, Norra Djurgården, Norra innerstadens stadsdelsområde, Stockholm, Stockholms kommun, Stockholms län, 114 17, Sverige", "name": "Stora Skuggan", "boundingbox": ["59.3544078", "59.3744078", "18.0609606", "18.0809606"], "type": "locality", "importance": 0.06667666666666666, "lon": "18.0709606", "lat": "59.3644078", "place_rank": 25}, "Sverige": {"addresstype": "country", "display_name": "Sverige", "name": "Sverige", "boundingbox": ["55.1370957", "69.0599735", "10.5935025", "24.1776850"], "type": "administrative", "importance": 0.34667666666666663, "lon": "14.5208584", "lat": "59.6749712", "place_rank": 4}, "Stadshus": {"addresstype": "building", "display_name": "Stadshus, Norra Kyrkogatan, Östanbäcken, Härnösand, Härnösands domkyrkodistrikt, Härnösands kommun, Västernorrlands län, 871 31, Sverige", "name": "Stadshus", "boundingbox": ["62.6320847", "62.6324496", "17.9409040", "17.9420599"], "type": "government", "importance": 9.99999999995449e-06, "lon": "17.94126292813855", "lat": "62.63225315", "place_rank": 30}, "Ålsta": {"addresstype": "hamlet", "display_name": "Ålsta, Håbo-Tibble kyrkby, Upplands-Bro kommun, Stockholms län, 197 92, Sverige", "name": "Ålsta", "boundingbox": ["59.5741885", "59.6141885", "17.6507238", "17.6907238"], "type": "hamlet", "importance": 0.1333433333333333, "lon": "17.6707238", "lat": "59.5941885", "place_rank": 20}, "Västra Årstabron": {"addresstype": "man_made", "display_name": "Västra Årstabron, Tantogatan, Zinkensdamm, Södermalm, Södermalms stadsdelsområde, Stockholm, Stockholms kommun, Stockholms län, 117 41, Sverige", "name": "Västra Årstabron", "boundingbox": ["59.3048201", "59.3110307", "18.0370515", "18.0461469"], "type": "bridge", "importance": 9.99999999995449e-06, "lon": "18.0406864791804", "lat": "59.30772195", "place_rank": 30}, "België / Belgique / Belgien": {"addresstype": "country", "display_name": "België / Belgique / Belgien", "name": "België / Belgique / Belgien", "boundingbox": ["49.4970000", "51.5470000", "2.3960000", "6.4081000"], "type": "country", "importance": 0.34667666666666663, "lon": "4.759349993241782", "lat": "51.138380156713716", "place_rank": 4}, "Bromma stadsdelsområde": {"addresstype": "city_district", "display_name": "Bromma stadsdelsområde, Stockholms kommun, Stockholms län, Sverige", "name": "Bromma stadsdelsområde", "boundingbox": ["59.3107006", "59.3703742", "17.8637932", "17.9982215"], "type": "administrative", "importance": 0.16000999999999999, "lon": "17.933114561222684", "lat": "59.3400654", "place_rank": 18}, "Danmark": {"addresstype": "country", "display_name": "Danmark", "name": "Danmark", "boundingbox": ["54.4617000", "57.9347000", "7.7277000", "15.5249000"], "type": "country", "importance": 0.34667666666666663, "lon": "10.498352941696483", "lat": "55.88284887823547", "place_rank": 4}, "Haga": {"addresstype": "city_district", "display_name": "Haga, Sköns distrikt, Sundsvalls kommun, Västernorrlands län, Sverige", "name": "Haga", "boundingbox": ["62.3941291", "62.4145421", "17.2920102", "17.3424070"], "type": "administrative", "importance": 0.16000999999999999, "lon": "17.321384506767295", "lat": "62.40440235", "place_rank": 18}, "Köpenhamn": {"addresstype": "islet", "display_name": "Köpenhamn, Ljungby kommun, Kronobergs län, Sverige", "name": "Köpenhamn", "boundingbox": ["56.6989533", "56.7000962", "14.1887946", "14.1896402"], "type": "islet", "importance": 0.1333433333333333, "lon": "14.189182003208881", "lat": "56.6994801", "place_rank": 20}, "Lund": {"addresstype": "city", "display_name": "Lund, Lunds kommun, Skåne län, Sverige", "name": "Lund", "boundingbox": ["55.6783920", "55.7412932", "13.1401706", "13.2634080"], "type": "administrative", "importance": 0.18667666666666663, "lon": "13.1929449", "lat": "55.7029296", "place_rank": 16}, "Malmö kommun": {"addresstype": "municipality", "display_name": "Malmö kommun, Skåne län, Sverige", "name": "Malmö kommun", "boundingbox": ["55.4805864", "55.6797247", "12.7171358", "13.1516847"], "type": "administrative", "importance": 0.2133433333333333, "lon": "13.0027658", "lat": "55.5836011", "place_rank": 14}, "Norden": {"addresstype": "hamlet", "display_name": "Norden, Enköpings kommun, Uppsala län, 749 72, Sverige", "name": "Norden", "boundingbox": ["59.7656557", "59.8056557", "17.0736173", "17.1136173"], "type": "hamlet", "importance": 0.1333433333333333, "lon": "17.0936173", "lat": "59.7856557", "place_rank": 20}, "Nordens torp": {"addresstype": "isolated_dwelling", "display_name": "Nordens torp, Högsjö, Vingåkers kommun, Södermanlands län, 640 10, Sverige", "name": "Nordens torp", "boundingbox": ["59.0199443", "59.0200443", "15.6920287", "15.6921287"], "type": "isolated_dwelling", "importance": 0.10667666666666664, "lon": "15.6920787", "lat": "59.0199943", "place_rank": 22}, "Storkyrkan": {"addresstype": "residential", "display_name": "Storkyrkan, Gamla staden, Norrköping, Norrköpings kommun, Östergötlands län, Sverige", "name": "Storkyrkan", "boundingbox": ["58.5897316", "58.5905930", "16.1905694", "16.1919020"], "type": "residential", "importance": 0.10667666666666664, "lon": "16.191233923220828", "lat": "58.5901633", "place_rank": 22}, "Petterssonvägen": {"addresstype": "road", "display_name": "Petterssonvägen, Ottsjö, Åre kommun, Jämtlands län, Sverige", "name": "Petterssonvägen", "boundingbox": ["63.2103918", "63.2145611", "13.0547686", "13.0642086"], "type": "track", "importance": 0.0533433333333333, "lon": "13.05991073730256", "lat": "63.212823021926965", "place_rank": 26}, "Riviera": {"addresstype": "neighbourhood", "display_name": "Riviera, Båstad, Båstads kommun, Skåne län, 269 37, Sverige", "name": "Riviera", "boundingbox": ["56.4238630", "56.4438630", "12.8640535", "12.8840535"], "type": "neighbourhood", "importance": 0.1333433333333333, "lon": "12.8740535", "lat": "56.433863", "place_rank": 20}, "Solna kommun": {"addresstype": "municipality", "display_name": "Solna kommun, Stockholms län, Sverige", "name": "Solna kommun", "boundingbox": ["59.3393450", "59.3999668", "17.9620869", "18.0587330"], "type": "administrative", "importance": 0.2133433333333333, "lon": "18.016667", "lat": "59.366667", "place_rank": 14}, "Spanien": {"addresstype": "isolated_dwelling", "display_name": "Spanien, Ekerö kommun, Stockholms län, 178 92, Sverige", "name": "Spanien", "boundingbox": ["59.3731103", "59.3732103", "17.4968243", "17.4969243"], "type": "isolated_dwelling", "importance": 0.10667666666666664, "lon": "17.4968743", "lat": "59.3731603", "place_rank": 22}, "Stadshuset": {"addresstype": "road", "display_name": "Stadshuset, Ällegården, Ronneby, Ronneby kommun, Blekinge län, 372 31, Sverige", "name": "Stadshuset", "boundingbox": ["56.2131733", "56.2142361", "15.2718962", "15.2741204"], "type": "service", "importance": 0.04000999999999999, "lon": "15.27267030616466", "lat": "56.21385802245547", "place_rank": 27}, "Sar-Larskölen": {"addresstype": "wetland", "display_name": "Sar-Larskölen, Nilsbo, Malung-Sälens kommun, Dalarnas län, Sverige", "name": "Sar-Larskölen", "boundingbox": ["61.4192646", "61.4286078", "13.0646742", "13.0756688"], "type": "wetland", "importance": 0.10667666666666664, "lon": "13.068310691294887", "lat": "61.4239259", "place_rank": 22}, "Särö": {"addresstype": "village", "display_name": "Särö, Kungsbacka kommun, Hallands län, 429 41, Sverige", "name": "Särö", "boundingbox": ["57.4859188", "57.5259188", "11.9203818", "11.9603818"], "type": "village", "importance": 0.14667666666666662, "lon": "11.9403818", "lat": "57.5059188", "place_rank": 19}, "Stadion": {"addresstype": "suburb", "display_name": "Stadion, Väster, Malmö, Malmö kommun, Skåne län, Sverige", "name": "Stadion", "boundingbox": ["55.5806045", "55.5880315", "12.9846239", "12.9936384"], "type": "administrative", "importance": 0.1333433333333333, "lon": "12.989494769032994", "lat": "55.5837396", "place_rank": 20}, "Öland": {"addresstype": "island", "display_name": "Öland, Sverige", "name": "Öland", "boundingbox": ["56.1945003", "57.3688245", "16.3692226", "17.1506366"], "type": "island", "importance": 0.17334333333333332, "lon": "16.662156060319074", "lat": "56.78159615", "place_rank": 17}, "Drottningholms slott": {"addresstype": "tourism", "display_name": "Drottningholms slott, Ekerövägen, Malmen, Ängsholm, Drottningholm, Ekerö kommun, Sundbybergs kommun, Stockholms län, 168 50, Sverige", "name": "Drottningholms slott", "boundingbox": ["59.3209694", "59.3223478", "17.8860510", "17.8875956"], "type": "attraction", "importance": 9.99999999995449e-06, "lon": "17.886891502416663", "lat": "59.3216277", "place_rank": 30}, "Centralstationen": {"addresstype": "highway", "display_name": "Centralstationen, Södra Hamngatan, Nordstaden, Inom Vallgraven, Centrum, Göteborg, Göteborgs Stad, Västra Götalands län, 411 03, Sverige", "name": "Centralstationen", "boundingbox": ["57.7072574", "57.7073574", "11.9735835", "11.9736835"], "type": "bus_stop", "importance": 9.99999999995449e-06, "lon": "11.9736335", "lat": "57.7073074", "place_rank": 30}, "Afrika": {"addresstype": "islet", "display_name": "Afrika, Näs, Alvesta kommun, Kronobergs län, Sverige", "name": "Afrika", "boundingbox": ["56.8323736", "56.8334652", "14.5425879", "14.5443258"], "type": "islet", "importance": 0.1333433333333333, "lon": "14.543541315527385", "lat": "56.8329106", "place_rank": 20}, "Asien": {"addresstype": "isolated_dwelling", "display_name": "Asien, Filipstads kommun, Värmlands län, Sverige", "name": "Asien", "boundingbox": ["60.0330105", "60.0331105", "14.3363973", "14.3364973"], "type": "isolated_dwelling", "importance": 0.10667666666666664, "lon": "14.3364473", "lat": "60.0330605", "place_rank": 22}, "London": {"addresstype": "hamlet", "display_name": "London, Vännäs kommun, Västerbottens län, Sverige", "name": "London", "boundingbox": ["63.8522529", "63.8922529", "19.5548590", "19.5948590"], "type": "hamlet", "importance": 0.1333433333333333, "lon": "19.574859", "lat": "63.8722529", "place_rank": 20}, "Heidelberg Materials Cement Sweden AB": {"addresstype": "office", "display_name": "Heidelberg Materials Cement Sweden AB, Skolgatan, Slite, Gotlands kommun, Gotlands län, 620 30, Sverige", "name": "Heidelberg Materials Cement Sweden AB", "boundingbox": ["57.7076004", "57.7080484", "18.8026773", "18.8038165"], "type": "yes", "importance": 9.99999999995449e-06, "lon": "18.80333364390146", "lat": "57.70779775", "place_rank": 30}, "Kullenbergstorp": {"addresstype": "hamlet", "display_name": "Kullenbergstorp, Höganäs kommun, Skåne län, 263 72, Sverige", "name": "Kullenbergstorp", "boundingbox": ["56.2178624", "56.2578624", "12.5786365", "12.6186365"], "type": "hamlet", "importance": 0.1333433333333333, "lon": "12.5986365", "lat": "56.2378624", "place_rank": 20}, "Polen": {"addresstype": "isolated_dwelling", "display_name": "Polen, Hamby, Enköpings kommun, Uppsala län, Sverige", "name": "Polen", "boundingbox": ["59.6972108", "59.6973108", "16.8596362", "16.8597362"], "type": "isolated_dwelling", "importance": 0.10667666666666664, "lon": "16.8596862", "lat": "59.6972608", "place_rank": 22}, "Södra Sverige": {"addresstype": "statistical", "display_name": "Södra Sverige, Sverige", "name": "Södra Sverige", "boundingbox": ["55.1370957", "59.2636923", "10.5935025", "19.7261656"], "type": "statistical", "importance": 0.06667666666666666, "lon": "14.566871712967952", "lat": "57.19559665", "place_rank": 25}, "Östergatan": {"addresstype": "road", "display_name": "Östergatan, Edsbyn, Ovanåkers kommun, Gävleborgs län, 828 34, Sverige", "name": "Östergatan", "boundingbox": ["61.3766626", "61.3825259", "15.8270535", "15.8344568"], "type": "residential", "importance": 0.0533433333333333, "lon": "15.832525888325724", "lat": "61.38068247192106", "place_rank": 26}, "Bohus": {"addresstype": "village", "display_name": "Bohus, Ale kommun, Västra Götalands län, 445 33, Sverige", "name": "Bohus", "boundingbox": ["57.8316173", "57.8716173", "11.9984224", "12.0384224"], "type": "village", "importance": 0.14667666666666662, "lon": "12.0184224", "lat": "57.8516173", "place_rank": 19}, "Vadstena camping": {"addresstype": "beach", "display_name": "Vadstena camping, Vadstena, Vadstena kommun, Östergötlands län, Sverige", "name": "Vadstena camping", "boundingbox": ["58.4664830", "58.4693876", "14.9367907", "14.9393611"], "type": "beach", "importance": 0.10667666666666664, "lon": "14.938420618418917", "lat": "58.467814849999996", "place_rank": 22}, "Dannemora": {"addresstype": "village", "display_name": "Dannemora, Östhammars kommun, Uppsala län, 748 30, Sverige", "name": "Dannemora", "boundingbox": ["60.1832735", "60.2232735", "17.8399065", "17.8799065"], "type": "village", "importance": 0.14667666666666662, "lon": "17.8599065", "lat": "60.2032735", "place_rank": 19}, "Glanshammar": {"addresstype": "village", "display_name": "Glanshammar, Örebro kommun, Örebro län, 703 85, Sverige", "name": "Glanshammar", "boundingbox": ["59.2982586", "59.3382586", "15.3807605", "15.4207605"], "type": "village", "importance": 0.14667666666666662, "lon": "15.4007605", "lat": "59.3182586", "place_rank": 19}, "Jönköpings län": {"addresstype": "county", "display_name": "Jönköpings län, Sverige", "name": "Jönköpings län", "boundingbox": ["56.8791516", "58.1910439", "13.0770718", "15.6656778"], "type": "administrative", "importance": 0.24000999999999997, "lon": "14.641181601671247", "lat": "57.535426", "place_rank": 12}, "Larv": {"addresstype": "village", "display_name": "Larv, Vara kommun, Västra Götalands län, 534 62, Sverige", "name": "Larv", "boundingbox": ["58.1689685", "58.2089685", "13.1064415", "13.1464415"], "type": "village", "importance": 0.14667666666666662, "lon": "13.1264415", "lat": "58.1889685", "place_rank": 19}, "Lidingö kommun": {"addresstype": "municipality", "display_name": "Lidingö kommun, Stockholms län, Sverige", "name": "Lidingö kommun", "boundingbox": ["59.3243048", "59.4056248", "18.0879908", "18.3033876"], "type": "administrative", "importance": 0.2133433333333333, "lon": "18.1820897", "lat": "59.3669445", "place_rank": 14}, "Linköpings kommun": {"addresstype": "municipality", "display_name": "Linköpings kommun, Östergötlands län, Sverige", "name": "Linköpings kommun", "boundingbox": ["58.0629275", "58.6521920", "15.2555505", "16.0752723"], "type": "administrative", "importance": 0.2133433333333333, "lon": "15.6001215", "lat": "58.3997329", "place_rank": 14}, "Sankt Anna": {"addresstype": "locality", "display_name": "Sankt Anna, Söderköpings kommun, Östergötlands län, Sverige", "name": "Sankt Anna", "boundingbox": ["58.3332761", "58.3532761", "16.6941062", "16.7141062"], "type": "locality", "importance": 0.06667666666666666, "lon": "16.7041062", "lat": "58.3432761", "place_rank": 25}, "Skaraborgsvägen": {"addresstype": "road", "display_name": "Skaraborgsvägen, Skaraborg, Säters kommun, Dalarnas län, 781 96, Sverige", "name": "Skaraborgsvägen", "boundingbox": ["60.3134549", "60.3152108", "15.3723511", "15.3743996"], "type": "residential", "importance": 0.0533433333333333, "lon": "15.373284109138218", "lat": "60.31421105621915", "place_rank": 26}, "سوريا": {"addresstype": "country", "display_name": "سوريا", "name": "سوريا", "boundingbox": ["32.3118000", "37.3187000", "35.4815000", "42.3746000"], "type": "country", "importance": 0.34667666666666663, "lon": "38.435751818623224", "lat": "35.09228162764011", "place_rank": 4}, "Tornby": {"addresstype": "suburb", "display_name": "Tornby, Skäggetorp, Linköping, Linköpings kommun, Östergötlands län, 582 73, Sverige", "name": "Tornby", "boundingbox": ["58.4111264", "58.4511264", "15.5781765", "15.6181765"], "type": "suburb", "importance": 0.14667666666666662, "lon": "15.5981765", "lat": "58.4311264", "place_rank": 19}, "Uppland": {"addresstype": "farmyard", "display_name": "Uppland, Trelleborgs kommun, Skåne län, Sverige", "name": "Uppland", "boundingbox": ["55.3929835", "55.3941197", "13.0477896", "13.0500980"], "type": "farmyard", "importance": 0.10667666666666664, "lon": "13.048847505563984", "lat": "55.39341195", "place_rank": 22}, "Versailles": {"addresstype": "highway", "display_name": "Versailles, Arlandaleden, Sigtuna kommun, Stockholms län, 190 45, Sverige", "name": "Versailles", "boundingbox": ["59.6489291", "59.6490291", "17.9356636", "17.9357636"], "type": "bus_stop", "importance": 9.99999999995449e-06, "lon": "17.9357136", "lat": "59.6489791", "place_rank": 30}, "Vittinge": {"addresstype": "village", "display_name": "Vittinge, Heby kommun, Uppsala län, 744 95, Sverige", "name": "Vittinge", "boundingbox": ["59.8843329", "59.9243329", "17.0410626", "17.0810626"], "type": "village", "importance": 0.14667666666666662, "lon": "17.0610626", "lat": "59.9043329", "place_rank": 19}, "Västmanlands län": {"addresstype": "county", "display_name": "Västmanlands län, Sverige", "name": "Västmanlands län", "boundingbox": ["59.1979186", "60.1950931", "15.4222385", "16.9659078"], "type": "administrative", "importance": 0.24000999999999997, "lon": "16.18460839124024", "lat": "59.69655635", "place_rank": 12}, "Örebro län": {"addresstype": "county", "display_name": "Örebro län, Sverige", "name": "Örebro län", "boundingbox": ["58.6461671", "60.1109343", "14.2852429", "15.7982094"], "type": "administrative", "importance": 0.24000999999999997, "lon": "14.98829195330232", "lat": "59.378487050000004", "place_rank": 12}, "Östergötlands län": {"addresstype": "county", "display_name": "Östergötlands län, Sverige", "name": "Östergötlands län", "boundingbox": ["57.6996356", "59.0187456", "14.4177317", "17.5692784"], "type": "administrative", "importance": 0.24000999999999997, "lon": "16.044714169791558", "lat": "58.36502495", "place_rank": 12}, "Sibelco Europe Forshammar": {"addresstype": "industrial", "display_name": "Sibelco Europe Forshammar, 145, Riddarhyttan, Lindesbergs kommun, Örebro län, 730 91, Sverige", "name": "Sibelco Europe Forshammar", "boundingbox": ["59.7608476", "59.7652616", "15.4992682", "15.5063760"], "type": "industrial", "importance": 0.10667666666666664, "lon": "15.504058356787734", "lat": "59.76305605", "place_rank": 22}, "Magyarország": {"addresstype": "country", "display_name": "Magyarország", "name": "Magyarország", "boundingbox": ["45.7371000", "48.5853000", "16.1139000", "22.8977000"], "type": "country", "importance": 0.34667666666666663, "lon": "19.615801367202277", "lat": "47.16598193732637", "place_rank": 4}, "Arvika kommun": {"addresstype": "municipality", "display_name": "Arvika kommun, Värmlands län, Sverige", "name": "Arvika kommun", "boundingbox": ["59.3848525", "60.1367258", "12.2759975", "13.0932917"], "type": "administrative", "importance": 0.2133433333333333, "lon": "12.65", "lat": "59.766667", "place_rank": 14}, "Falköpings kommun": {"addresstype": "municipality", "display_name": "Falköpings kommun, Västra Götalands län, Sverige", "name": "Falköpings kommun", "boundingbox": ["57.9103205", "58.4394997", "13.1891835", "13.8914823"], "type": "administrative", "importance": 0.2133433333333333, "lon": "13.516667", "lat": "58.2", "place_rank": 14}, "Fors": {"addresstype": "village", "display_name": "Fors, Avesta kommun, Dalarnas län, 774 97, Sverige", "name": "Fors", "boundingbox": ["60.1878658", "60.2278658", "16.2871709", "16.3271709"], "type": "village", "importance": 0.14667666666666662, "lon": "16.3071709", "lat": "60.2078658", "place_rank": 19}, "Haparanda kommun": {"addresstype": "municipality", "display_name": "Haparanda kommun, Norrbottens län, Sverige", "name": "Haparanda kommun", "boundingbox": ["65.3563760", "66.1678194", "23.3320524", "24.1776850"], "type": "administrative", "importance": 0.2133433333333333, "lon": "24.1", "lat": "65.833333", "place_rank": 14}, "Norrköpings kommun": {"addresstype": "municipality", "display_name": "Norrköpings kommun, Östergötlands län, Sverige", "name": "Norrköpings kommun", "boundingbox": ["58.3989812", "58.8538793", "15.6176019", "17.5692784"], "type": "administrative", "importance": 0.2133433333333333, "lon": "16.333333", "lat": "58.583333", "place_rank": 14}, "Ystads kommun": {"addresstype": "municipality", "display_name": "Ystads kommun, Skåne län, Sverige", "name": "Ystads kommun", "boundingbox": ["55.1774258", "55.5752794", "13.6195382", "14.3838776"], "type": "administrative", "importance": 0.2133433333333333, "lon": "13.85", "lat": "55.433333", "place_rank": 14}, "Östersunds kommun": {"addresstype": "municipality", "display_name": "Östersunds kommun, Jämtlands län, Sverige", "name": "Östersunds kommun", "boundingbox": ["62.6661500", "63.5948629", "14.2647107", "15.5559949"], "type": "administrative", "importance": 0.2133433333333333, "lon": "14.916667", "lat": "63.25", "place_rank": 14}, "H": {"addresstype": "man_made", "display_name": "H, Hinsholmens Bryggväg, Påvelund, Fiskebäck, Sydväst, Göteborg, Göteborgs Stad, Västra Götalands län, 426 76, Sverige", "name": "H", "boundingbox": ["57.6617401", "57.6622944", "11.8538330", "11.8547162"], "type": "pier", "importance": 9.99999999995449e-06, "lon": "11.8542746", "lat": "57.662017250000005", "place_rank": 30}, "Anderstorp": {"addresstype": "suburb", "display_name": "Anderstorp, Skellefteå, Skellefteå kommun, Västerbottens län, 931 59, Sverige", "name": "Anderstorp", "boundingbox": ["64.7227892", "64.7627892", "20.9488933", "20.9888933"], "type": "suburb", "importance": 0.14667666666666662, "lon": "20.9688933", "lat": "64.7427892", "place_rank": 19}, "Göteborgs Stad": {"addresstype": "municipality", "display_name": "Göteborgs Stad, Västra Götalands län, Sverige", "name": "Göteborgs Stad", "boundingbox": ["57.4996624", "57.8660032", "11.2315640", "12.2416073"], "type": "administrative", "importance": 0.2133433333333333, "lon": "11.9727685", "lat": "57.710083", "place_rank": 14}, "Bryggatan": {"addresstype": "road", "display_name": "Bryggatan, Tofta, Sjöbo, Sjöbo kommun, Skåne län, 275 34, Sverige", "name": "Bryggatan", "boundingbox": ["55.6291079", "55.6293559", "13.7207946", "13.7217461"], "type": "residential", "importance": 0.0533433333333333, "lon": "13.721270350000001", "lat": "55.6292319", "place_rank": 26}, "Brygghuset": {"addresstype": "residential", "display_name": "Brygghuset, Tega, Kungälvs kommun, Västra Götalands län, Sverige", "name": "Brygghuset", "boundingbox": ["57.8607764", "57.8614102", "11.8980155", "11.8988714"], "type": "residential", "importance": 0.10667666666666664, "lon": "11.898254615087374", "lat": "57.86104505", "place_rank": 22}, "Frankrikes ambassad": {"addresstype": "office", "display_name": "Frankrikes ambassad, Kommendörsgatan, Villastaden, Östermalm, Norra innerstadens stadsdelsområde, Stockholm, Stockholms kommun, Stockholms län, 114 60, Sverige", "name": "Frankrikes ambassad", "boundingbox": ["59.3388032", "59.3389032", "18.0792572", "18.0793572"], "type": "diplomatic", "importance": 9.99999999995449e-06, "lon": "18.0793072", "lat": "59.3388532", "place_rank": 30}, "Grekland": {"addresstype": "locality", "display_name": "Grekland, Skutskär, Älvkarleby kommun, Uppsala län, 814 30, Sverige", "name": "Grekland", "boundingbox": ["60.6034660", "60.6234660", "17.3813549", "17.4013549"], "type": "locality", "importance": 0.06667666666666666, "lon": "17.3913549", "lat": "60.613466", "place_rank": 25}, "România": {"addresstype": "country", "display_name": "România", "name": "România", "boundingbox": ["43.6187000", "48.2654000", "20.2620000", "30.0375000"], "type": "country", "importance": 0.34667666666666663, "lon": "25.10737940493606", "lat": "45.728534357033276", "place_rank": 4}, "Ungern": {"addresstype": "islet", "display_name": "Ungern, Oskarshamns kommun, Kalmar län, Sverige", "name": "Ungern", "boundingbox": ["57.1926271", "57.1933857", "16.4938143", "16.4954289"], "type": "islet", "importance": 0.1333433333333333, "lon": "16.494606835815063", "lat": "57.1929861", "place_rank": 20}, "Argentina": {"addresstype": "country", "display_name": "Argentina", "name": "Argentina", "boundingbox": ["-55.1817000", "-21.7809000", "-73.5605000", "-53.6375000"], "type": "country", "importance": 0.34667666666666663, "lon": "-65.20613870950321", "lat": "-36.74740522307737", "place_rank": 4}, "Holland": {"addresstype": "isolated_dwelling", "display_name": "Holland, Askersunds kommun, Örebro län, Sverige", "name": "Holland", "boundingbox": ["58.8455183", "58.8456183", "15.0847379", "15.0848379"], "type": "isolated_dwelling", "importance": 0.10667666666666664, "lon": "15.0847879", "lat": "58.8455683", "place_rank": 22}, "Canada": {"addresstype": "country", "display_name": "Canada", "name": "Canada", "boundingbox": ["41.6766000", "83.3134000", "-141.0027000", "-52.3399000"], "type": "country", "importance": 0.34667666666666663, "lon": "-94.39243486368741", "lat": "61.2481216994045", "place_rank": 4}, "Norge": {"addresstype": "country", "display_name": "Norge", "name": "Norge", "boundingbox": ["-54.6381000", "81.0057000", "-9.6746000", "34.6789000"], "type": "country", "importance": 0.34667666666666663, "lon": "18.03601816753513", "lat": "68.29938964789179", "place_rank": 4}, "Schweiz/Suisse/Svizzera/Svizra": {"addresstype": "country", "display_name": "Schweiz/Suisse/Svizzera/Svizra", "name": "Schweiz/Suisse/Svizzera/Svizra", "boundingbox": ["45.8180000", "47.8085000", "5.9559000", "10.4922000"], "type": "country", "importance": 0.34667666666666663, "lon": "8.221111715539996", "lat": "46.81304397581629", "place_rank": 4}, "Munchen Bryggeriet": {"addresstype": "office", "display_name": "Munchen Bryggeriet, Torkel Knutssonsgatan, Zinkensdamm, Södermalm, Södermalms stadsdelsområde, Stockholm, Stockholms kommun, Stockholms län, 118 25, Sverige", "name": "Munchen Bryggeriet", "boundingbox": ["59.3206070", "59.3207070", "18.0560723", "18.0561723"], "type": "company", "importance": 9.99999999995449e-06, "lon": "18.0561223", "lat": "59.320657", "place_rank": 30}, "Hallands län": {"addresstype": "county", "display_name": "Hallands län, Sverige", "name": "Hallands län", "boundingbox": ["56.3241190", "57.5975012", "11.4535546", "13.6935731"], "type": "administrative", "importance": 0.24000999999999997, "lon": "12.85470664576265", "lat": "56.9608104", "place_rank": 12}, "Globalize Beach house": {"addresstype": "amenity", "display_name": "Globalize Beach house, 90, Klittervägen, Kristineslätt, Skrea Strand, Falkenberg, Falkenbergs kommun, Hallands län, 311 42, Sverige", "name": "Globalize Beach house", "boundingbox": ["56.8813193", "56.8815371", "12.5090873", "12.5094627"], "type": "fast_food", "importance": 9.99999999995449e-06, "lon": "12.509274988028848", "lat": "56.88143795", "place_rank": 30}, "Hån": {"addresstype": "lake", "display_name": "Hån, Ludvika kommun, Dalarnas län, Sverige", "name": "Hån", "boundingbox": ["60.1792005", "60.2137859", "14.3934399", "14.4275339"], "type": "lake", "importance": 0.1333433333333333, "lon": "14.405631208442845", "lat": "60.196475750000005", "place_rank": 20}, "Israel": {"addresstype": "islet", "display_name": "Israel, Umeå kommun, Västerbottens län, Sverige", "name": "Israel", "boundingbox": ["63.6893429", "63.6895791", "20.9161275", "20.9165194"], "type": "islet", "importance": 0.1333433333333333, "lon": "20.916262400808513", "lat": "63.689460350000004", "place_rank": 20}, "Lybäck": {"addresstype": "hamlet", "display_name": "Lybäck, Vännäs kommun, Västerbottens län, Sverige", "name": "Lybäck", "boundingbox": ["63.8504324", "63.8904324", "19.6552999", "19.6952999"], "type": "hamlet", "importance": 0.1333433333333333, "lon": "19.6752999", "lat": "63.8704324", "place_rank": 20}, "Paris": {"addresstype": "hamlet", "display_name": "Paris, Norrtälje kommun, Stockholms län, 761 98, Sverige", "name": "Paris", "boundingbox": ["59.7423158", "59.7823158", "18.7836565", "18.8236565"], "type": "hamlet", "importance": 0.1333433333333333, "lon": "18.8036565", "lat": "59.7623158", "place_rank": 20}, "Tyskland": {"addresstype": "islet", "display_name": "Tyskland, Säffle kommun, Värmlands län, Sverige", "name": "Tyskland", "boundingbox": ["58.8717183", "58.8757031", "13.2470734", "13.2501236"], "type": "islet", "importance": 0.1333433333333333, "lon": "13.248417464028249", "lat": "58.873764", "place_rank": 20}, "Västerbotten": {"addresstype": "historic", "display_name": "Västerbotten, Sverige", "name": "Västerbotten", "boundingbox": ["63.2342848", "65.3809506", "18.7568912", "22.0805651"], "type": "historic", "importance": 0.06667666666666666, "lon": "20.50029073256784", "lat": "64.30636135", "place_rank": 25}, "Skeppsholmen": {"addresstype": "island", "display_name": "Skeppsholmen, Timrå distrikt, Timrå kommun, Västernorrlands län, 861 45, Sverige", "name": "Skeppsholmen", "boundingbox": ["62.2009668", "62.8409668", "17.1201499", "17.7601499"], "type": "island", "importance": 0.17334333333333332, "lon": "17.4401499", "lat": "62.5209668", "place_rank": 17}, "Bohuslän": {"addresstype": "historic", "display_name": "Bohuslän, Sverige", "name": "Bohuslän", "boundingbox": ["57.6474389", "59.1149793", "10.5935025", "12.2284913"], "type": "historic", "importance": 0.06667666666666666, "lon": "11.441026097756726", "lat": "58.3810286", "place_rank": 25}, "Fiskebäcks Hamn": {"addresstype": "road", "display_name": "Fiskebäcks Hamn, Fiskebäck, Sydväst, Göteborg, Göteborgs Stad, Västra Götalands län, 426 58, Sverige", "name": "Fiskebäcks Hamn", "boundingbox": ["57.6452347", "57.6465963", "11.8577422", "11.8597218"], "type": "unclassified", "importance": 0.0533433333333333, "lon": "11.859096999680888", "lat": "57.646288955283154", "place_rank": 26}, "Ålsten": {"addresstype": "suburb", "display_name": "Ålsten, Bromma stadsdelsområde, Stockholms kommun, Stockholms län, Sverige", "name": "Ålsten", "boundingbox": ["59.3107006", "59.3291823", "17.9396616", "17.9612505"], "type": "administrative", "importance": 0.14667666666666662, "lon": "17.9509287", "lat": "59.3235143", "place_rank": 20}, "Arabien": {"addresstype": "isolated_dwelling", "display_name": "Arabien, Gunnebo, Västerviks kommun, Kalmar län, 593 96, Sverige", "name": "Arabien", "boundingbox": ["57.7301849", "57.7302849", "16.5331485", "16.5332485"], "type": "isolated_dwelling", "importance": 0.10667666666666664, "lon": "16.5331985", "lat": "57.7302349", "place_rank": 22}, "Santos": {"addresstype": "building", "display_name": "Santos, Lärdomsgatan, Lindholmshamnen, Lindholmen, Hisingen, Göteborg, Göteborgs Stad, Västra Götalands län, 417 56, Sverige", "name": "Santos", "boundingbox": ["57.7050783", "57.7062858", "11.9344418", "11.9365678"], "type": "yes", "importance": 9.99999999995449e-06, "lon": "11.935498067202385", "lat": "57.70567925", "place_rank": 30}, "Sydamerika": {"addresstype": "leisure", "display_name": "Sydamerika, Strömgatan, Lillsidan, Enköping, Enköpings kommun, Uppsala län, 745 63, Sverige", "name": "Sydamerika", "boundingbox": ["59.6341512", "59.6342400", "17.0615879", "17.0617837"], "type": "garden", "importance": 9.99999999995449e-06, "lon": "17.061693949582562", "lat": "59.6341824", "place_rank": 30}, "Skeppsbron": {"addresstype": "suburb", "display_name": "Skeppsbron, Jönköping, Jönköpings kommun, Jönköpings län, 553 30, Sverige", "name": "Skeppsbron", "boundingbox": ["57.7440461", "57.7840461", "14.1370882", "14.1770882"], "type": "suburb", "importance": 0.14667666666666662, "lon": "14.1570882", "lat": "57.7640461", "place_rank": 19}, "Bottenviken / Perämeri": {"addresstype": "bay", "display_name": "Bottenviken / Perämeri", "name": "Bottenviken / Perämeri", "boundingbox": ["64.8140608", "64.8141608", "23.2225942", "23.2226942"], "type": "bay", "importance": 0.10667666666666664, "lon": "23.2226442", "lat": "64.8141108", "place_rank": 22}, "Båstads kommun": {"addresstype": "municipality", "display_name": "Båstads kommun, Skåne län, Sverige", "name": "Båstads kommun", "boundingbox": ["56.3078722", "56.5572130", "12.1840546", "12.9685754"], "type": "administrative", "importance": 0.2133433333333333, "lon": "12.833333", "lat": "56.383333", "place_rank": 14}, "Enköpings kommun": {"addresstype": "municipality", "display_name": "Enköpings kommun, Uppsala län, Sverige", "name": "Enköpings kommun", "boundingbox": ["59.3834653", "59.8847824", "16.7274867", "17.5420035"], "type": "administrative", "importance": 0.2133433333333333, "lon": "17.1", "lat": "59.666667", "place_rank": 14}, "Gevalia": {"addresstype": "block", "display_name": "Gevalia, Nynäs, Villastan, Gävle, Gävle kommun, Gävleborgs län, Sverige", "name": "Gevalia", "boundingbox": ["60.6752389", "60.6763366", "17.1411373", "17.1430419"], "type": "block", "importance": 0.10667666666666664, "lon": "17.14206068198743", "lat": "60.675817699999996", "place_rank": 22}, "Java": {"addresstype": "isolated_dwelling", "display_name": "Java, Stora Pålstorp, Strängnäs kommun, Södermanlands län, 645 94, Sverige", "name": "Java", "boundingbox": ["59.3211976", "59.3212976", "17.1062487", "17.1063487"], "type": "isolated_dwelling", "importance": 0.10667666666666664, "lon": "17.1062987", "lat": "59.3212476", "place_rank": 22}, "Karlshamns kommun": {"addresstype": "municipality", "display_name": "Karlshamns kommun, Blekinge län, Sverige", "name": "Karlshamns kommun", "boundingbox": ["55.8940448", "56.3899855", "14.6486284", "15.2306552"], "type": "administrative", "importance": 0.2133433333333333, "lon": "14.866667", "lat": "56.25", "place_rank": 14}, "Karlstads kommun": {"addresstype": "municipality", "display_name": "Karlstads kommun, Värmlands län, Sverige", "name": "Karlstads kommun", "boundingbox": ["59.1663203", "59.7738010", "13.0890443", "14.0312429"], "type": "administrative", "importance": 0.2133433333333333, "lon": "13.8", "lat": "59.516667", "place_rank": 14}, "Rio Grande": {"addresstype": "amenity", "display_name": "Rio Grande, Lilla Vintergatan, Ljusdal, Ljusdals kommun, Gävleborgs län, 827 31, Sverige", "name": "Rio Grande", "boundingbox": ["61.8295252", "61.8296252", "16.0891882", "16.0892882"], "type": "restaurant", "importance": 9.99999999995449e-06, "lon": "16.0892382", "lat": "61.8295752", "place_rank": 30}, "Spaniens ambassad": {"addresstype": "office", "display_name": "Spaniens ambassad, Hazeliusporten, Djurgårdsstaden, Djurgården, Norra innerstadens stadsdelsområde, Stockholm, Stockholms kommun, Stockholms län, 115 21, Sverige", "name": "Spaniens ambassad", "boundingbox": ["59.3263141", "59.3264141", "18.0981843", "18.0982843"], "type": "diplomatic", "importance": 9.99999999995449e-06, "lon": "18.0982343", "lat": "59.3263641", "place_rank": 30}, "Södertälje kommun": {"addresstype": "municipality", "display_name": "Södertälje kommun, Stockholms län, Sverige", "name": "Södertälje kommun", "boundingbox": ["58.8152952", "59.3517418", "17.3120780", "17.7430423"], "type": "administrative", "importance": 0.2133433333333333, "lon": "17.490849917246422", "lat": "59.08390455", "place_rank": 14}, "Västerås kommun": {"addresstype": "municipality", "display_name": "Västerås kommun, Västmanlands län, Sverige", "name": "Västerås kommun", "boundingbox": ["59.4523281", "59.8460525", "16.2346265", "16.9659078"], "type": "administrative", "importance": 0.2133433333333333, "lon": "16.5804658", "lat": "59.6168326", "place_rank": 14}, "Norrland": {"addresstype": "hamlet", "display_name": "Norrland, Lugnvik, Bjärtrå distrikt, Kramfors kommun, Västernorrlands län, 872 64, Sverige", "name": "Norrland", "boundingbox": ["62.9010854", "62.9410854", "17.8739322", "17.9139322"], "type": "hamlet", "importance": 0.1333433333333333, "lon": "17.8939322", "lat": "62.9210854", "place_rank": 20}, "Skåne län": {"addresstype": "county", "display_name": "Skåne län, Sverige", "name": "Skåne län", "boundingbox": ["55.1370957", "56.5572130", "12.1174567", "14.7017264"], "type": "administrative", "importance": 0.24000999999999997, "lon": "13.633929194709467", "lat": "55.84723005", "place_rank": 12}, "Uppsala kommun": {"addresstype": "municipality", "display_name": "Uppsala kommun, Uppsala län, Sverige", "name": "Uppsala kommun", "boundingbox": ["59.7306589", "60.1862421", "17.0798532", "18.4733583"], "type": "administrative", "importance": 0.2133433333333333, "lon": "17.5984327", "lat": "59.8661986", "place_rank": 14}, "Kungsörs kommun": {"addresstype": "municipality", "display_name": "Kungsörs kommun, Västmanlands län, Sverige", "name": "Kungsörs kommun", "boundingbox": ["59.3462403", "59.4905501", "15.8677581", "16.3066780"], "type": "administrative", "importance": 0.2133433333333333, "lon": "16.1", "lat": "59.433333", "place_rank": 14}, "Öster": {"addresstype": "city_district", "display_name": "Öster, Malmö kommun, Skåne län, Sverige", "name": "Öster", "boundingbox": ["55.5509566", "55.6091087", "13.0293281", "13.1516847"], "type": "administrative", "importance": 0.16000999999999999, "lon": "13.089065317080728", "lat": "55.579982650000005", "place_rank": 18}, "Gamla stan": {"addresstype": "suburb", "display_name": "Gamla stan, Kalmar kommun, Kalmar län, Sverige", "name": "Gamla stan", "boundingbox": ["56.6525830", "56.6628695", "16.3425397", "16.3631263"], "type": "administrative", "importance": 0.14667666666666662, "lon": "16.3482216", "lat": "56.6597213", "place_rank": 20}, "Östermalm": {"addresstype": "suburb", "display_name": "Östermalm, Norra innerstadens stadsdelsområde, Stockholms kommun, Stockholms län, Sverige", "name": "Östermalm", "boundingbox": ["59.3297316", "59.3505762", "18.0579084", "18.1095719"], "type": "administrative", "importance": 0.14667666666666662, "lon": "18.0859178", "lat": "59.336723", "place_rank": 20}, "Caffetteria del Corso": {"addresstype": "amenity", "display_name": "Caffetteria del Corso, Hötorgspassagen, Klara, Norrmalm, Norra innerstadens stadsdelsområde, Stockholm, Stockholms kommun, Stockholms län, 111 57, Sverige", "name": "Caffetteria del Corso", "boundingbox": ["59.3333162", "59.3334162", "18.0626393", "18.0627393"], "type": "cafe", "importance": 9.99999999995449e-06, "lon": "18.0626893", "lat": "59.3333662", "place_rank": 30}, "Helsingborgs kommun": {"addresstype": "municipality", "display_name": "Helsingborgs kommun, Skåne län, Sverige", "name": "Helsingborgs kommun", "boundingbox": ["55.9170393", "56.2621188", "12.5396118", "12.9891587"], "type": "administrative", "importance": 0.2133433333333333, "lon": "12.75", "lat": "56.083333", "place_rank": 14}, "Roxy": {"addresstype": "amenity", "display_name": "Roxy, Nygatan, Tälje, Södertälje, Södertälje kommun, Stockholms län, 151 73, Sverige", "name": "Roxy", "boundingbox": ["59.1971617", "59.1972617", "17.6237817", "17.6238817"], "type": "fast_food", "importance": 9.99999999995449e-06, "lon": "17.6238317", "lat": "59.1972117", "place_rank": 30}, "Savoy": {"addresstype": "amenity", "display_name": "Savoy, 14, Föreningsgatan, Hjortmossen, Trollhättan, Trollhättans kommun, Västra Götalands län, 461 30, Sverige", "name": "Savoy", "boundingbox": ["58.2839910", "58.2840910", "12.2892880", "12.2893880"], "type": "restaurant", "importance": 9.99999999995449e-06, "lon": "12.289338", "lat": "58.284041", "place_rank": 30}, "ایران": {"addresstype": "country", "display_name": "ایران", "name": "ایران", "boundingbox": ["24.8646000", "39.7825000", "44.0319000", "63.3333000"], "type": "country", "importance": 0.34667666666666663, "lon": "54.289339689985944", "lat": "33.61620396144437", "place_rank": 4}, "Skansen": {"addresstype": "peak", "display_name": "Skansen, Ludvika kommun, Dalarnas län, Sverige", "name": "Skansen", "boundingbox": ["60.3692323", "60.3693323", "14.9235483", "14.9236483"], "type": "peak", "importance": 0.16000999999999999, "lon": "14.9235983", "lat": "60.3692823", "place_rank": 18}, "Fjällnäs": {"addresstype": "village", "display_name": "Fjällnäs, Härjedalens kommun, Jämtlands län, Sverige", "name": "Fjällnäs", "boundingbox": ["62.5786541", "62.6186541", "12.1580671", "12.1980671"], "type": "village", "importance": 0.14667666666666662, "lon": "12.1780671", "lat": "62.5986541", "place_rank": 19}, "Funäsdalen": {"addresstype": "village", "display_name": "Funäsdalen, Härjedalens kommun, Jämtlands län, 840 95, Sverige", "name": "Funäsdalen", "boundingbox": ["62.5261507", "62.5661507", "12.5218262", "12.5618262"], "type": "village", "importance": 0.14667666666666662, "lon": "12.5418262", "lat": "62.5461507", "place_rank": 19}, "Hamrafjället": {"addresstype": "peak", "display_name": "Hamrafjället, Härjedalens kommun, Jämtlands län, 840 98, Sverige", "name": "Hamrafjället", "boundingbox": ["62.5668818", "62.5669818", "12.2769331", "12.2770331"], "type": "peak", "importance": 0.16000999999999999, "lon": "12.2769831", "lat": "62.5669318", "place_rank": 18}, "Hede": {"addresstype": "village", "display_name": "Hede, Härjedalens kommun, Jämtlands län, 846 31, Sverige", "name": "Hede", "boundingbox": ["62.3993436", "62.4393436", "13.4966777", "13.5366777"], "type": "village", "importance": 0.14667666666666662, "lon": "13.5166777", "lat": "62.4193436", "place_rank": 19}, "Härjedalens kommun": {"addresstype": "municipality", "display_name": "Härjedalens kommun, Jämtlands län, Sverige", "name": "Härjedalens kommun", "boundingbox": ["61.5639082", "62.7647215", "12.0561440", "15.4292464"], "type": "administrative", "importance": 0.2133433333333333, "lon": "13.95", "lat": "62.25", "place_rank": 14}, "Kölnvägen": {"addresstype": "road", "display_name": "Kölnvägen, Falu kommun, Dalarnas län, Sverige", "name": "Kölnvägen", "boundingbox": ["60.8257058", "60.8315901", "15.5887626", "15.6250038"], "type": "track", "importance": 0.0533433333333333, "lon": "15.606807730880565", "lat": "60.82670753015185", "place_rank": 26}, "Lofsdalen": {"addresstype": "village", "display_name": "Lofsdalen, Härjedalens kommun, Jämtlands län, 840 85, Sverige", "name": "Lofsdalen", "boundingbox": ["62.0937446", "62.1337446", "13.2540313", "13.2940313"], "type": "village", "importance": 0.14667666666666662, "lon": "13.2740313", "lat": "62.1137446", "place_rank": 19}, "Polcirkeln": {"addresstype": "hamlet", "display_name": "Polcirkeln, Gällivare kommun, Norrbottens län, Sverige", "name": "Polcirkeln", "boundingbox": ["66.5487934", "66.5887934", "20.9994071", "21.0394071"], "type": "hamlet", "importance": 0.1333433333333333, "lon": "21.0194071", "lat": "66.5687934", "place_rank": 20}, "Sonfjället": {"addresstype": "peak", "display_name": "Sonfjället, Härjedalens kommun, Jämtlands län, Sverige", "name": "Sonfjället", "boundingbox": ["62.3002731", "62.3003731", "13.5509931", "13.5510931"], "type": "peak", "importance": 0.16000999999999999, "lon": "13.5510431", "lat": "62.3003231", "place_rank": 18}, "Sveg": {"addresstype": "town", "display_name": "Sveg, Härjedalens kommun, Jämtlands län, 842 32, Sverige", "name": "Sveg", "boundingbox": ["61.9960709", "62.0760709", "14.3198392", "14.3998392"], "type": "town", "importance": 0.16000999999999999, "lon": "14.3598392", "lat": "62.0360709", "place_rank": 18}, "Tännäs": {"addresstype": "hamlet", "display_name": "Tännäs, Härjedalens kommun, Jämtlands län, Sverige", "name": "Tännäs", "boundingbox": ["62.4195616", "62.4595616", "12.6649288", "12.7049288"], "type": "hamlet", "importance": 0.1333433333333333, "lon": "12.6849288", "lat": "62.4395616", "place_rank": 20}, "Creperie Bretagne": {"addresstype": "amenity", "display_name": "Creperie Bretagne, 2, Friisgatan, Rådmansvången, Norr, Malmö, Malmö kommun, Skåne län, 211 46, Sverige", "name": "Creperie Bretagne", "boundingbox": ["55.5947743", "55.5948743", "13.0033655", "13.0034655"], "type": "cafe", "importance": 9.99999999995449e-06, "lon": "13.0034155", "lat": "55.5948243", "place_rank": 30}, "Förenta staternas ambassad": {"addresstype": "office", "display_name": "Förenta staternas ambassad, Dag Hammarskjölds Väg, Östermalm, Norra innerstadens stadsdelsområde, Stockholm, Stockholms kommun, Stockholms län, 115 27, Sverige", "name": "Förenta staternas ambassad", "boundingbox": ["59.3333721", "59.3338939", "18.1050661", "18.1066924"], "type": "diplomatic", "importance": 9.99999999995449e-06, "lon": "18.105810773701094", "lat": "59.3335687", "place_rank": 30}, "Rastplats Atlanten": {"addresstype": "highway", "display_name": "Rastplats Atlanten, Vetlandavägen, Målilla, Hultsfreds kommun, Kalmar län, 570 82, Sverige", "name": "Rastplats Atlanten", "boundingbox": ["57.3874875", "57.3879595", "15.8043091", "15.8053431"], "type": "rest_area", "importance": 9.99999999995449e-06, "lon": "15.804982538483605", "lat": "57.387840249999996", "place_rank": 30}, "Finland": {"addresstype": "islet", "display_name": "Finland, Amerika, Gertrudsvik, Västervik, Västerviks kommun, Kalmar län, Sverige", "name": "Finland", "boundingbox": ["57.7842477", "57.7872161", "16.6043336", "16.6082604"], "type": "islet", "importance": 0.1333433333333333, "lon": "16.606463868575254", "lat": "57.785717649999995", "place_rank": 20}, "Finlandsvägen": {"addresstype": "road", "display_name": "Finlandsvägen, Lycksele kommun, Västerbottens län, Sverige", "name": "Finlandsvägen", "boundingbox": ["64.3359785", "64.3731382", "18.3033899", "18.4351562"], "type": "track", "importance": 0.0533433333333333, "lon": "18.354542215965253", "lat": "64.36344054353468", "place_rank": 26}, "Råsunda": {"addresstype": "suburb", "display_name": "Råsunda, Solna, Solna kommun, Stockholms län, 169 54, Sverige", "name": "Råsunda", "boundingbox": ["59.3456580", "59.3856580", "17.9746009", "18.0146009"], "type": "suburb", "importance": 0.14667666666666662, "lon": "17.9946009", "lat": "59.365658", "place_rank": 19}, "Skabersjö": {"addresstype": "farmyard", "display_name": "Skabersjö, Svedala kommun, Skåne län, Sverige", "name": "Skabersjö", "boundingbox": ["55.5388714", "55.5427899", "13.1427897", "13.1532576"], "type": "farmyard", "importance": 0.10667666666666664, "lon": "13.146086764945096", "lat": "55.54077665", "place_rank": 22}, "Soliden": {"addresstype": "isolated_dwelling", "display_name": "Soliden, Tanums kommun, Västra Götalands län, 457 73, Sverige", "name": "Soliden", "boundingbox": ["58.7627537", "58.7628537", "11.1761785", "11.1762785"], "type": "isolated_dwelling", "importance": 0.10667666666666664, "lon": "11.1762285", "lat": "58.7628037", "place_rank": 22}, "Kungsängens garnison": {"addresstype": "military", "display_name": "Kungsängens garnison, Granhammarsvägen, Brunna, Upplands-Bro kommun, Stockholms län, 196 38, Sverige", "name": "Kungsängens garnison", "boundingbox": ["59.5099334", "59.5196699", "17.7694921", "17.7878009"], "type": "barracks", "importance": 9.99999999995449e-06, "lon": "17.77906855835305", "lat": "59.514649950000006", "place_rank": 30}, "Tullgarn": {"addresstype": "isolated_dwelling", "display_name": "Tullgarn, Uppvidinge kommun, Kronobergs län, 364 96, Sverige", "name": "Tullgarn", "boundingbox": ["56.9966284", "56.9967284", "15.4290804", "15.4291804"], "type": "isolated_dwelling", "importance": 0.10667666666666664, "lon": "15.4291304", "lat": "56.9966784", "place_rank": 22}, "Blomster stadion": {"addresstype": "shop", "display_name": "Blomster stadion, Råsundavägen, Vasalund, Råsunda, Solna, Solna kommun, Stockholms län, 169 51, Sverige", "name": "Blomster stadion", "boundingbox": ["59.3650355", "59.3651355", "17.9950421", "17.9951421"], "type": "florist", "importance": 9.99999999995449e-06, "lon": "17.9950921", "lat": "59.3650855", "place_rank": 30}, "Allfartsvägen": {"addresstype": "road", "display_name": "Allfartsvägen, Hanviken, Trollbäcken, Tyresö kommun, Stockholms län, 135 37, Sverige", "name": "Allfartsvägen", "boundingbox": ["59.2285667", "59.2292074", "18.2127294", "18.2197443"], "type": "residential", "importance": 0.0533433333333333, "lon": "18.216245790933222", "lat": "59.22905850192103", "place_rank": 26}, "Alnö distrikt": {"addresstype": "city", "display_name": "Alnö distrikt, Sundsvalls kommun, Västernorrlands län, Sverige", "name": "Alnö distrikt", "boundingbox": ["62.3190319", "62.4941228", "17.3527445", "17.6582066"], "type": "administrative", "importance": 0.18667666666666663, "lon": "17.512937830199135", "lat": "62.40391015", "place_rank": 16}, "Alnö gamla kyrka": {"addresstype": "amenity", "display_name": "Alnö gamla kyrka, Alnövägen, Bergvik, Nysäter, Alnö kommundel, Alnö distrikt, Sundsvalls kommun, Västernorrlands län, 865 33, Sverige", "name": "Alnö gamla kyrka", "boundingbox": ["62.4475841", "62.4477474", "17.4049803", "17.4054899"], "type": "place_of_worship", "importance": 9.99999999995449e-06, "lon": "17.405248863831986", "lat": "62.447665549999996", "place_rank": 30}, "Bergeforsen": {"addresstype": "village", "display_name": "Bergeforsen, Timrå distrikt, Timrå kommun, Västernorrlands län, 861 39, Sverige", "name": "Bergeforsen", "boundingbox": ["62.5063180", "62.5463180", "17.3539827", "17.3939827"], "type": "village", "importance": 0.14667666666666662, "lon": "17.3739827", "lat": "62.526318", "place_rank": 19}, "Bergs": {"addresstype": "hamlet", "display_name": "Bergs, Ovanåkers kommun, Gävleborgs län, Sverige", "name": "Bergs", "boundingbox": ["61.2159790", "61.2559790", "15.8270766", "15.8670766"], "type": "hamlet", "importance": 0.1333433333333333, "lon": "15.8470766", "lat": "61.235979", "place_rank": 20}, "Bodacke": {"addresstype": "hamlet", "display_name": "Bodacke, Lidens distrikt, Indals-Lidens kommundel, Sundsvalls kommun, Västernorrlands län, 855 99, Sverige", "name": "Bodacke", "boundingbox": ["62.7004546", "62.7404546", "16.7773466", "16.8173466"], "type": "hamlet", "importance": 0.1333433333333333, "lon": "16.7973466", "lat": "62.7204546", "place_rank": 20}, "Borgsjö distrikt": {"addresstype": "city", "display_name": "Borgsjö distrikt, Ånge kommun, Västernorrlands län, Sverige", "name": "Borgsjö distrikt", "boundingbox": ["62.2879579", "62.7127829", "15.2451030", "16.1134030"], "type": "administrative", "importance": 0.18667666666666663, "lon": "15.701045757141312", "lat": "62.5000256", "place_rank": 16}, "Bremö Fyr": {"addresstype": "man_made", "display_name": "Bremö Fyr, Norrhamn, Berga, Björkön, Njurunda glesbygdsområde, Njurunda distrikt, Sundsvalls kommun, Västernorrlands län, Sverige", "name": "Bremö Fyr", "boundingbox": ["62.2192342", "62.2192702", "17.7402689", "17.7403460"], "type": "lighthouse", "importance": 9.99999999995449e-06, "lon": "17.740307232758617", "lat": "62.2192532", "place_rank": 30}, "Fläsian": {"addresstype": "suburb", "display_name": "Fläsian, Sundsvalls tätortsområde, Skönsmons distrikt, Sundsvalls kommun, Västernorrlands län, Sverige", "name": "Fläsian", "boundingbox": ["62.3531285", "62.3696334", "17.3624193", "17.3979728"], "type": "administrative", "importance": 0.16000999999999999, "lon": "17.3699471", "lat": "62.3583149", "place_rank": 18}, "Fornhemmet": {"addresstype": "locality", "display_name": "Fornhemmet, Vist, Linköpings kommun, Östergötlands län, Sverige", "name": "Fornhemmet", "boundingbox": ["58.2650034", "58.2850034", "15.7300166", "15.7500166"], "type": "locality", "importance": 0.06667666666666666, "lon": "15.7400166", "lat": "58.2750034", "place_rank": 25}, "Haverö distrikt": {"addresstype": "city", "display_name": "Haverö distrikt, Ånge kommun, Västernorrlands län, Sverige", "name": "Haverö distrikt", "boundingbox": ["62.2499838", "62.6007992", "14.7803520", "15.6131581"], "type": "administrative", "importance": 0.18667666666666663, "lon": "15.180753139741114", "lat": "62.41545465", "place_rank": 16}, "Holmsjön": {"addresstype": "lake", "display_name": "Holmsjön, Bräcke kommun, Jämtlands län, Sverige", "name": "Holmsjön", "boundingbox": ["62.9771473", "62.9891917", "15.6415850", "15.6737647"], "type": "lake", "importance": 0.1333433333333333, "lon": "15.657883651857336", "lat": "62.98306735", "place_rank": 20}, "Indal": {"addresstype": "city_district", "display_name": "Indal, Indals-Lidens kommundel, Sundsvalls kommun, Västernorrlands län, 855 97, Sverige", "name": "Indal", "boundingbox": ["62.5727180", "62.5870773", "17.0737887", "17.1190605"], "type": "administrative", "importance": 0.16000999999999999, "lon": "17.10268524767163", "lat": "62.57974555", "place_rank": 18}, "Indalsälvens delta": {"addresstype": "leisure", "display_name": "Indalsälvens delta, Deltavägen, Hässjö distrikt, Timrå kommun, Västernorrlands län, 861 95, Sverige", "name": "Indalsälvens delta", "boundingbox": ["62.5022920", "62.5179430", "17.4466100", "17.4780972"], "type": "nature_reserve", "importance": 9.99999999995449e-06, "lon": "17.46423531667584", "lat": "62.509700050000006", "place_rank": 30}, "Jämtlands län": {"addresstype": "county", "display_name": "Jämtlands län, Sverige", "name": "Jämtlands län", "boundingbox": ["61.5639082", "65.1189152", "11.9745821", "16.9989783"], "type": "administrative", "importance": 0.24000999999999997, "lon": "14.12375114010373", "lat": "63.34658555", "place_rank": 12}, "Lidens kyrka": {"addresstype": "amenity", "display_name": "Lidens kyrka, Husåsvägen, Lidens distrikt, Indals-Lidens kommundel, Sundsvalls kommun, Västernorrlands län, 855 99, Sverige", "name": "Lidens kyrka", "boundingbox": ["62.6993385", "62.6995340", "16.8014544", "16.8023142"], "type": "place_of_worship", "importance": 9.99999999995449e-06, "lon": "16.801884472764705", "lat": "62.6994324", "place_rank": 30}, "Lögdö bruk": {"addresstype": "hamlet", "display_name": "Lögdö bruk, Stavreviken, Hässjö distrikt, Timrå kommun, Västernorrlands län, 861 92, Sverige", "name": "Lögdö bruk", "boundingbox": ["62.5382802", "62.5782802", "17.3654207", "17.4054207"], "type": "hamlet", "importance": 0.1333433333333333, "lon": "17.3854207", "lat": "62.5582802", "place_rank": 20}, "Löransvägen": {"addresstype": "road", "display_name": "Löransvägen, Björköviken, Berga, Björkön, Njurunda glesbygdsområde, Njurunda distrikt, Sundsvalls kommun, Västernorrlands län, 862 96, Sverige", "name": "Löransvägen", "boundingbox": ["62.2419179", "62.2623567", "17.4589113", "17.5213664"], "type": "secondary", "importance": 0.0533433333333333, "lon": "17.488121821435694", "lat": "62.246290037259364", "place_rank": 26}, "Malm": {"addresstype": "hamlet", "display_name": "Malm, Nyköpings kommun, Södermanlands län, Sverige", "name": "Malm", "boundingbox": ["58.8555000", "58.8955000", "16.7937073", "16.8337073"], "type": "hamlet", "importance": 0.1333433333333333, "lon": "16.8137073", "lat": "58.8755", "place_rank": 20}, "Stora Melpad": {"addresstype": "islet", "display_name": "Stora Melpad, Falun, Falu kommun, Dalarnas län, Sverige", "name": "Stora Melpad", "boundingbox": ["60.5648230", "60.5656350", "15.7196947", "15.7212837"], "type": "islet", "importance": 0.1333433333333333, "lon": "15.720570869152187", "lat": "60.565243550000005", "place_rank": 20}, "Nidaros": {"addresstype": "historic", "display_name": "Nidaros, Nysätravägen, Skärsätra, Lidingö, Lidingö kommun, Stockholms län, 181 61, Sverige", "name": "Nidaros", "boundingbox": ["59.3400697", "59.3402492", "18.1682566", "18.1685972"], "type": "ruins", "importance": 9.99999999995449e-06, "lon": "18.1683834028733", "lat": "59.34015855", "place_rank": 30}, "Selångers distrikt": {"addresstype": "city", "display_name": "Selångers distrikt, Sundsvalls kommun, Västernorrlands län, Sverige", "name": "Selångers distrikt", "boundingbox": ["62.3525536", "62.4559301", "16.8649098", "17.2993254"], "type": "administrative", "importance": 0.18667666666666663, "lon": "17.126562182517404", "lat": "62.4042125", "place_rank": 16}, "Siam": {"addresstype": "shop", "display_name": "Siam, Drottningholmsvägen, Ulvsunda, Bromma stadsdelsområde, Stockholm, Stockholms kommun, Stockholms län, 167 31, Sverige", "name": "Siam", "boundingbox": ["59.3367387", "59.3368387", "17.9564066", "17.9565066"], "type": "massage", "importance": 9.99999999995449e-06, "lon": "17.9564566", "lat": "59.3367887", "place_rank": 30}, "Stadsberget": {"addresstype": "peak", "display_name": "Stadsberget, Ragunda kommun, Jämtlands län, Sverige", "name": "Stadsberget", "boundingbox": ["63.1472560", "63.1473560", "16.0374693", "16.0375693"], "type": "peak", "importance": 0.16000999999999999, "lon": "16.0375193", "lat": "63.147306", "place_rank": 18}, "Sundsvalls kommun": {"addresstype": "municipality", "display_name": "Sundsvalls kommun, Västernorrlands län, Sverige", "name": "Sundsvalls kommun", "boundingbox": ["62.0871800", "62.9469681", "16.2512674", "18.2313516"], "type": "administrative", "importance": 0.2133433333333333, "lon": "17.299768", "lat": "62.383354", "place_rank": 14}, "Sundsvallsfjärden": {"addresstype": "bay", "display_name": "Sundsvallsfjärden, Sundsvalls tätortsområde, Skönsmons distrikt, Sundsvalls kommun, Västernorrlands län, Sverige", "name": "Sundsvallsfjärden", "boundingbox": ["62.3771604", "62.3984649", "17.3137808", "17.3786004"], "type": "bay", "importance": 0.10667666666666664, "lon": "17.350376494634936", "lat": "62.38781655", "place_rank": 22}, "Vindhem": {"addresstype": "farmyard", "display_name": "Vindhem, Munksundet, Enköping, Enköpings kommun, Uppsala län, Sverige", "name": "Vindhem", "boundingbox": ["59.6321769", "59.6337146", "17.0394066", "17.0407525"], "type": "farmyard", "importance": 0.10667666666666664, "lon": "17.04006049983417", "lat": "59.6328823", "place_rank": 22}, "Vättaberget": {"addresstype": "peak", "display_name": "Vättaberget, Indals-Lidens kommundel, Sundsvalls kommun, Västernorrlands län, 860 41, Sverige", "name": "Vättaberget", "boundingbox": ["62.6947520", "62.6948520", "16.7732971", "16.7733971"], "type": "peak", "importance": 0.16000999999999999, "lon": "16.7733471", "lat": "62.694802", "place_rank": 18}, "Ånge kommun": {"addresstype": "municipality", "display_name": "Ånge kommun, Västernorrlands län, Sverige", "name": "Ånge kommun", "boundingbox": ["62.2343039", "62.7127829", "14.7803520", "16.5705420"], "type": "administrative", "importance": 0.2133433333333333, "lon": "15.641168226766993", "lat": "62.47374005", "place_rank": 14}, "Borensberg": {"addresstype": "village", "display_name": "Borensberg, Motala kommun, Östergötlands län, 590 31, Sverige", "name": "Borensberg", "boundingbox": ["58.5456587", "58.5856587", "15.2602181", "15.3002181"], "type": "village", "importance": 0.14667666666666662, "lon": "15.2802181", "lat": "58.5656587", "place_rank": 19}, "Brahehus": {"addresstype": "highway", "display_name": "Brahehus, E 4, Mällby, Norra Boarp, Gränna, Jönköpings kommun, Jönköpings län, 563 31, Sverige", "name": "Brahehus", "boundingbox": ["58.0512455", "58.0531896", "14.5069544", "14.5099705"], "type": "services", "importance": 9.99999999995449e-06, "lon": "14.508440548135134", "lat": "58.052183400000004", "place_rank": 30}, "Bravikens pappersbruk": {"addresstype": "industrial", "display_name": "Bravikens pappersbruk, Kvillinge församling, Norrköping, Norrköpings kommun, Östergötlands län, Sverige", "name": "Bravikens pappersbruk", "boundingbox": ["58.6309534", "58.6439143", "16.2399656", "16.2682999"], "type": "industrial", "importance": 0.10667666666666664, "lon": "16.251810771344772", "lat": "58.63753625", "place_rank": 22}, "Gränna": {"addresstype": "town", "display_name": "Gränna, Jönköpings kommun, Jönköpings län, 563 31, Sverige", "name": "Gränna", "boundingbox": ["57.9850583", "58.0650583", "14.4273146", "14.5073146"], "type": "town", "importance": 0.16000999999999999, "lon": "14.4673146", "lat": "58.0250583", "place_rank": 18}, "Göta kanal": {"addresstype": "canal", "display_name": "Göta kanal, Sverige", "name": "Göta kanal", "boundingbox": ["58.4755447", "58.8374038", "13.9735374", "16.4195186"], "type": "canal", "importance": 0.14667666666666662, "lon": "15.0965535", "lat": "58.5587698", "place_rank": 19}, "Habo kyrka": {"addresstype": "amenity", "display_name": "Habo kyrka, F 1815, Kyrkbyn, Habo distrikt, Habo kommun, Jönköpings län, Sverige", "name": "Habo kyrka", "boundingbox": ["57.8852855", "57.8854725", "14.0207346", "14.0213195"], "type": "place_of_worship", "importance": 9.99999999995449e-06, "lon": "14.021028467867465", "lat": "57.88535885", "place_rank": 30}, "Hindås": {"addresstype": "village", "display_name": "Hindås, Härryda kommun, Västra Götalands län, 438 54, Sverige", "name": "Hindås", "boundingbox": ["57.6828166", "57.7228166", "12.4311882", "12.4711882"], "type": "village", "importance": 0.14667666666666662, "lon": "12.4511882", "lat": "57.7028166", "place_rank": 19}, "Kolmården": {"addresstype": "neighbourhood", "display_name": "Kolmården, Krokek, Norrköpings kommun, Östergötlands län, 618 34, Sverige", "name": "Kolmården", "boundingbox": ["58.6502391", "58.6702391", "16.3809410", "16.4009410"], "type": "neighbourhood", "importance": 0.1333433333333333, "lon": "16.390941", "lat": "58.6602391", "place_rank": 20}, "Nordkalotten": {"addresstype": "highway", "display_name": "Nordkalotten, Nordkalottvägen, Trollheden, Bergnäset, Luleå, Luleå kommun, Norrbottens län, 972 52, Sverige", "name": "Nordkalotten", "boundingbox": ["65.5648502", "65.5649502", "22.0948536", "22.0949536"], "type": "bus_stop", "importance": 9.99999999995449e-06, "lon": "22.0949036", "lat": "65.5649002", "place_rank": 30}, "Nyköpings kommun": {"addresstype": "municipality", "display_name": "Nyköpings kommun, Södermanlands län, Sverige", "name": "Nyköpings kommun", "boundingbox": ["58.4563202", "59.0305193", "16.2690646", "17.8747319"], "type": "administrative", "importance": 0.2133433333333333, "lon": "17.166667", "lat": "58.916667", "place_rank": 14}, "Slussen": {"addresstype": "suburb", "display_name": "Slussen, Norr, Malmö, Malmö kommun, Skåne län, 211 30, Sverige", "name": "Slussen", "boundingbox": ["55.6050778", "55.6095748", "13.0127122", "13.0215215"], "type": "administrative", "importance": 0.1333433333333333, "lon": "13.01725895832905", "lat": "55.6072556", "place_rank": 20}, "Stortorget": {"addresstype": "peak", "display_name": "Stortorget, Nordingrå distrikt, Kramfors kommun, Västernorrlands län, 873 99, Sverige", "name": "Stortorget", "boundingbox": ["62.9148411", "62.9149411", "18.3055081", "18.3056081"], "type": "peak", "importance": 0.16000999999999999, "lon": "18.3055581", "lat": "62.9148911", "place_rank": 18}, "Söderköpings kommun": {"addresstype": "municipality", "display_name": "Söderköpings kommun, Östergötlands län, Sverige", "name": "Söderköpings kommun", "boundingbox": ["58.2572414", "58.5269489", "16.0091326", "17.5692784"], "type": "administrative", "importance": 0.2133433333333333, "lon": "16.333333", "lat": "58.45", "place_rank": 14}, "Tullgarns Kungsgård": {"addresstype": "farm", "display_name": "Tullgarns Kungsgård, Södertälje kommun, Stockholms län, 619 91, Sverige", "name": "Tullgarns Kungsgård", "boundingbox": ["58.9461291", "58.9661291", "17.5636668", "17.5836668"], "type": "farm", "importance": 0.10667666666666664, "lon": "17.5736668", "lat": "58.9561291", "place_rank": 22}, "Vadstena Klosterkyrka": {"addresstype": "amenity", "display_name": "Vadstena Klosterkyrka, Lasarettsgatan, Vadstena, Vadstena kommun, Östergötlands län, 592 21, Sverige", "name": "Vadstena Klosterkyrka", "boundingbox": ["58.4505948", "58.4509833", "14.8908999", "14.8921857"], "type": "place_of_worship", "importance": 9.99999999995449e-06, "lon": "14.891537845510586", "lat": "58.450770899999995", "place_rank": 30}, "Visingsborg": {"addresstype": "historic", "display_name": "Visingsborg, Hamnvägen, Jönköpings kommun, Jönköpings län, 560 34, Sverige", "name": "Visingsborg", "boundingbox": ["58.0347335", "58.0350053", "14.3517188", "14.3523872"], "type": "castle", "importance": 9.99999999995449e-06, "lon": "14.352052999999987", "lat": "58.034869400000005", "place_rank": 30}, "Visingsö": {"addresstype": "island", "display_name": "Visingsö, Tunnerstad, Jönköpings kommun, Jönköpings län, Sverige", "name": "Visingsö", "boundingbox": ["57.9972047", "58.1080575", "14.2756404", "14.4148698"], "type": "island", "importance": 0.17334333333333332, "lon": "14.344474230905153", "lat": "58.0528247", "place_rank": 17}, "Västergötland": {"addresstype": "historic", "display_name": "Västergötland, Sverige", "name": "Västergötland", "boundingbox": ["57.1455496", "59.0593266", "11.2315640", "14.7788190"], "type": "historic", "importance": 0.06667666666666666, "lon": "13.219412684307688", "lat": "58.1025615", "place_rank": 25}, "Vättern": {"addresstype": "lake", "display_name": "Vättern, Sverige", "name": "Vättern", "boundingbox": ["57.7822047", "58.8632464", "14.1098639", "15.0264668"], "type": "lake", "importance": 0.1333433333333333, "lon": "14.484377658886856", "lat": "58.32277275", "place_rank": 20}, "Hälsobrunn": {"addresstype": "natural", "display_name": "Hälsobrunn, Gundrastorpsvägen, Ekholmen, Hässleholms kommun, Skåne län, 282 67, Sverige", "name": "Hälsobrunn", "boundingbox": ["56.3536357", "56.3537357", "13.7105554", "13.7106554"], "type": "spring", "importance": 9.99999999995449e-06, "lon": "13.7106054", "lat": "56.3536857", "place_rank": 30}, "Vadstena Slott": {"addresstype": "historic", "display_name": "Vadstena Slott, Slottsvägen, Vadstena, Vadstena kommun, Östergötlands län, 592 23, Sverige", "name": "Vadstena Slott", "boundingbox": ["58.4451725", "58.4467321", "14.8821931", "14.8853563"], "type": "castle", "importance": 9.99999999995449e-06, "lon": "14.88264108797391", "lat": "58.44595555", "place_rank": 30}, "Östergyllen": {"addresstype": "isolated_dwelling", "display_name": "Östergyllen, Högryd, Södra Vings distrikt, Ulricehamns kommun, Västra Götalands län, 523 98, Sverige", "name": "Östergyllen", "boundingbox": ["57.7834129", "57.7835129", "13.3004401", "13.3005401"], "type": "isolated_dwelling", "importance": 0.10667666666666664, "lon": "13.3004901", "lat": "57.7834629", "place_rank": 22}, "Bäckefors": {"addresstype": "village", "display_name": "Bäckefors, Bengtsfors kommun, Västra Götalands län, 668 88, Sverige", "name": "Bäckefors", "boundingbox": ["58.7861271", "58.8261271", "12.1399693", "12.1799693"], "type": "village", "importance": 0.14667666666666662, "lon": "12.1599693", "lat": "58.8061271", "place_rank": 19}, "Dalsland": {"addresstype": "historic", "display_name": "Dalsland, Sverige", "name": "Dalsland", "boundingbox": ["58.3856542", "59.2636923", "11.6520030", "12.8996274"], "type": "historic", "importance": 0.06667666666666666, "lon": "12.306726961722264", "lat": "58.82512275", "place_rank": 25}, "Dingelvik": {"addresstype": "hamlet", "display_name": "Dingelvik, Bengtsfors kommun, Västra Götalands län, Sverige", "name": "Dingelvik", "boundingbox": ["58.9120647", "58.9520647", "12.2174856", "12.2574856"], "type": "hamlet", "importance": 0.1333433333333333, "lon": "12.2374856", "lat": "58.9320647", "place_rank": 20}, "Haglö": {"addresstype": "islet", "display_name": "Haglö, Skavkulla och Skillingenäs, Karlskrona kommun, Blekinge län, Sverige", "name": "Haglö", "boundingbox": ["56.1634223", "56.1698260", "15.5080281", "15.5208598"], "type": "islet", "importance": 0.1333433333333333, "lon": "15.514377032140416", "lat": "56.16668565", "place_rank": 20}, "Laxarby kyrka": {"addresstype": "amenity", "display_name": "Laxarby kyrka, O 2238, Närsbyn, Bengtsfors kommun, Västra Götalands län, Sverige", "name": "Laxarby kyrka", "boundingbox": ["59.0308018", "59.0310275", "12.3234899", "12.3240036"], "type": "place_of_worship", "importance": 9.99999999995449e-06, "lon": "12.323746764259932", "lat": "59.030917200000005", "place_rank": 30}, "Melleruds kommun": {"addresstype": "municipality", "display_name": "Melleruds kommun, Västra Götalands län, Sverige", "name": "Melleruds kommun", "boundingbox": ["58.5045245", "58.8671258", "12.1762050", "12.8717279"], "type": "administrative", "importance": 0.2133433333333333, "lon": "12.466667", "lat": "58.716667", "place_rank": 14}, "Vänern": {"addresstype": "lake", "display_name": "Vänern, Sverige", "name": "Vänern", "boundingbox": ["58.3555326", "59.4177879", "12.3078015", "14.1519215"], "type": "lake", "importance": 0.1333433333333333, "lon": "13.562732891733827", "lat": "58.88666585", "place_rank": 20}, "Amo": {"addresstype": "shop", "display_name": "Amo, Norrbackagatan, Torsplan, Vasastaden, Norra innerstadens stadsdelsområde, Stockholm, Stockholms kommun, Stockholms län, 113 34, Sverige", "name": "Amo", "boundingbox": ["59.3426024", "59.3427024", "18.0315138", "18.0316138"], "type": "dry_cleaning", "importance": 9.99999999995449e-06, "lon": "18.0315638", "lat": "59.3426524", "place_rank": 30}, "Åmåls kommun": {"addresstype": "municipality", "display_name": "Åmåls kommun, Västra Götalands län, Sverige", "name": "Åmåls kommun", "boundingbox": ["58.7472328", "59.1861114", "12.4022539", "12.8996274"], "type": "administrative", "importance": 0.2133433333333333, "lon": "12.6126708", "lat": "58.983838", "place_rank": 14}, "Ödeborg": {"addresstype": "village", "display_name": "Ödeborg, Färgelanda kommun, Västra Götalands län, 458 32, Sverige", "name": "Ödeborg", "boundingbox": ["58.5259580", "58.5659580", "11.9535917", "11.9935917"], "type": "village", "importance": 0.14667666666666662, "lon": "11.9735917", "lat": "58.545958", "place_rank": 19}, "Öresund": {"addresstype": "isolated_dwelling", "display_name": "Öresund, Nordmalings distrikt, Nordmalings kommun, Västerbottens län, Sverige", "name": "Öresund", "boundingbox": ["63.4424030", "63.4425030", "19.4665860", "19.4666860"], "type": "isolated_dwelling", "importance": 0.10667666666666664, "lon": "19.466636", "lat": "63.442453", "place_rank": 22}, "Östersjön": {"addresstype": "lake", "display_name": "Östersjön, Härjedalens kommun, Jämtlands län, Sverige", "name": "Östersjön", "boundingbox": ["62.4926881", "62.5210204", "12.3930781", "12.4727118"], "type": "lake", "importance": 0.1333433333333333, "lon": "12.425025303941633", "lat": "62.506854149999995", "place_rank": 20}, "Östersjöns fågeltorn": {"addresstype": "leisure", "display_name": "Östersjöns fågeltorn, T 548, Degerfors kommun, Örebro län, 693 92, Sverige", "name": "Östersjöns fågeltorn", "boundingbox": ["59.2676940", "59.2677940", "14.4148526", "14.4149526"], "type": "bird_hide", "importance": 9.99999999995449e-06, "lon": "14.4149026", "lat": "59.267744", "place_rank": 30}, "Bergsjö": {"addresstype": "town", "display_name": "Bergsjö, Nordanstigs kommun, Gävleborgs län, 829 50, Sverige", "name": "Bergsjö", "boundingbox": ["61.9437757", "62.0237757", "17.0183699", "17.0983699"], "type": "town", "importance": 0.16000999999999999, "lon": "17.0583699", "lat": "61.9837757", "place_rank": 18}, "Stor Bolleberget": {"addresstype": "peak", "display_name": "Stor Bolleberget, Bollnäs kommun, Gävleborgs län, 821 93, Sverige", "name": "Stor Bolleberget", "boundingbox": ["61.3671460", "61.3672460", "16.3126563", "16.3127563"], "type": "peak", "importance": 0.16000999999999999, "lon": "16.3127063", "lat": "61.367196", "place_rank": 18}, "Bollnäs kommun": {"addresstype": "municipality", "display_name": "Bollnäs kommun, Gävleborgs län, Sverige", "name": "Bollnäs kommun", "boundingbox": ["60.9921449", "61.6444875", "15.9213520", "16.9832565"], "type": "administrative", "importance": 0.2133433333333333, "lon": "16.433333", "lat": "61.35", "place_rank": 14}, "Bollnäs kyrka": {"addresstype": "amenity", "display_name": "Bollnäs kyrka, Järnvägsgatan, Bollnäs, Bollnäs kommun, Gävleborgs län, 821 42, Sverige", "name": "Bollnäs kyrka", "boundingbox": ["61.3455562", "61.3458701", "16.3893030", "16.3900792"], "type": "place_of_worship", "importance": 9.99999999995449e-06, "lon": "16.38969111505204", "lat": "61.34571065", "place_rank": 30}, "Edsby": {"addresstype": "isolated_dwelling", "display_name": "Edsby, Ed, Upplands Väsby, Upplands Väsby kommun, Stockholms län, 194 47, Sverige", "name": "Edsby", "boundingbox": ["59.5113575", "59.5114575", "17.8686575", "17.8687575"], "type": "isolated_dwelling", "importance": 0.10667666666666664, "lon": "17.8687075", "lat": "59.5114075", "place_rank": 22}, "MFK Hudik": {"addresstype": "recreation_ground", "display_name": "MFK Hudik, Sandvalla, Hudiksvall, Hudiksvalls kommun, Gävleborgs län, Sverige", "name": "MFK Hudik", "boundingbox": ["61.7373660", "61.7381662", "17.1266878", "17.1287638"], "type": "recreation_ground", "importance": 0.10667666666666664, "lon": "17.127869566333466", "lat": "61.7376239", "place_rank": 22}, "Hudiksvalls kommun": {"addresstype": "municipality", "display_name": "Hudiksvalls kommun, Gävleborgs län, Sverige", "name": "Hudiksvalls kommun", "boundingbox": ["61.3716546", "62.2269410", "16.0652072", "18.0090266"], "type": "administrative", "importance": 0.2133433333333333, "lon": "17.166667", "lat": "61.666667", "place_rank": 14}, "Hälsingland": {"addresstype": "isolated_dwelling", "display_name": "Hälsingland, Hallviken, Strömsunds kommun, Jämtlands län, Sverige", "name": "Hälsingland", "boundingbox": ["63.7391220", "63.7392220", "15.4802482", "15.4803482"], "type": "isolated_dwelling", "importance": 0.10667666666666664, "lon": "15.4802982", "lat": "63.739172", "place_rank": 22}, "Hälsinglands tingsrätt": {"addresstype": "amenity", "display_name": "Hälsinglands tingsrätt, Källargränd, Kålhagen, Hudiksvall, Hudiksvalls kommun, Gävleborgs län, 824 30, Sverige", "name": "Hälsinglands tingsrätt", "boundingbox": ["61.7297671", "61.7302453", "17.1034305", "17.1044174"], "type": "courthouse", "importance": 9.99999999995449e-06, "lon": "17.10388681462586", "lat": "61.7300098", "place_rank": 30}, "Iggesund": {"addresstype": "village", "display_name": "Iggesund, Hudiksvalls kommun, Gävleborgs län, 825 30, Sverige", "name": "Iggesund", "boundingbox": ["61.6229635", "61.6629635", "17.0581216", "17.0981216"], "type": "village", "importance": 0.14667666666666662, "lon": "17.0781216", "lat": "61.6429635", "place_rank": 19}, "Järvsö": {"addresstype": "village", "display_name": "Järvsö, Ljusdals kommun, Gävleborgs län, 827 50, Sverige", "name": "Järvsö", "boundingbox": ["61.6958943", "61.7358943", "16.1493209", "16.1893209"], "type": "village", "importance": 0.14667666666666662, "lon": "16.1693209", "lat": "61.7158943", "place_rank": 19}, "Norrbobyn": {"addresstype": "hamlet", "display_name": "Norrbobyn, Hudiksvalls kommun, Gävleborgs län, Sverige", "name": "Norrbobyn", "boundingbox": ["61.8366890", "61.8766890", "16.6344946", "16.6744946"], "type": "hamlet", "importance": 0.1333433333333333, "lon": "16.6544946", "lat": "61.856689", "place_rank": 20}, "Söderhamns kommun": {"addresstype": "municipality", "display_name": "Söderhamns kommun, Gävleborgs län, Sverige", "name": "Söderhamns kommun", "boundingbox": ["61.0394798", "61.5357417", "16.5509261", "17.8416758"], "type": "administrative", "importance": 0.2133433333333333, "lon": "17.0507098", "lat": "61.2966254", "place_rank": 14}, "Trönö": {"addresstype": "village", "display_name": "Trönö, Söderhamns kommun, Gävleborgs län, Sverige", "name": "Trönö", "boundingbox": ["61.3761376", "61.4161376", "16.8137173", "16.8537173"], "type": "village", "importance": 0.14667666666666662, "lon": "16.8337173", "lat": "61.3961376", "place_rank": 19}, "Öjeberget": {"addresstype": "peak", "display_name": "Öjeberget, Järvsö, Ljusdals kommun, Gävleborgs län, 820 40, Sverige", "name": "Öjeberget", "boundingbox": ["61.7173759", "61.7174759", "16.1492239", "16.1493239"], "type": "peak", "importance": 0.16000999999999999, "lon": "16.1492739", "lat": "61.7174259", "place_rank": 18}, "Abisko": {"addresstype": "village", "display_name": "Abisko, Kiruna kommun, Norrbottens län, 981 07, Sverige", "name": "Abisko", "boundingbox": ["68.3301695", "68.3701695", "18.8100059", "18.8500059"], "type": "village", "importance": 0.14667666666666662, "lon": "18.8300059", "lat": "68.3501695", "place_rank": 19}, "Björkliden": {"addresstype": "peak", "display_name": "Björkliden, Lycksele kommun, Västerbottens län, Sverige", "name": "Björkliden", "boundingbox": ["64.6737642", "64.6738642", "18.8085877", "18.8086877"], "type": "peak", "importance": 0.16000999999999999, "lon": "18.8086377", "lat": "64.6738142", "place_rank": 18}, "Bur": {"addresstype": "isolated_dwelling", "display_name": "Bur, Högen, Bergum, Nordost, Göteborgs Stad, Västra Götalands län, 424 72, Sverige", "name": "Bur", "boundingbox": ["57.8042889", "57.8043889", "12.1313634", "12.1314634"], "type": "isolated_dwelling", "importance": 0.10667666666666664, "lon": "12.1314134", "lat": "57.8043389", "place_rank": 22}, "Domkyrkan": {"addresstype": "peak", "display_name": "Domkyrkan, Tyresö kommun, Stockholms län, 139 69, Sverige", "name": "Domkyrkan", "boundingbox": ["59.2155676", "59.2156676", "18.4267102", "18.4268102"], "type": "peak", "importance": 0.16000999999999999, "lon": "18.4267602", "lat": "59.2156176", "place_rank": 18}, "Gosen": {"addresstype": "isolated_dwelling", "display_name": "Gosen, Vilhelmina kommun, Västerbottens län, Sverige", "name": "Gosen", "boundingbox": ["65.3636654", "65.3637654", "15.7368672", "15.7369672"], "type": "isolated_dwelling", "importance": 0.10667666666666664, "lon": "15.7369172", "lat": "65.3637154", "place_rank": 22}, "Hammarby": {"addresstype": "village", "display_name": "Hammarby, Sandvikens kommun, Gävleborgs län, 812 41, Sverige", "name": "Hammarby", "boundingbox": ["60.5250570", "60.5650570", "16.5539451", "16.5939451"], "type": "village", "importance": 0.14667666666666662, "lon": "16.5739451", "lat": "60.545057", "place_rank": 19}, "Indalsälven": {"addresstype": "river", "display_name": "Indalsälven, Sverige", "name": "Indalsälven", "boundingbox": ["62.5036833", "63.4510469", "12.4775720", "17.4774819"], "type": "river", "importance": 0.16000999999999999, "lon": "15.0415096", "lat": "63.281089", "place_rank": 18}, "Kungsholm": {"addresstype": "isolated_dwelling", "display_name": "Kungsholm, Nyköping, Nyköpings kommun, Södermanlands län, 611 38, Sverige", "name": "Kungsholm", "boundingbox": ["58.7401943", "58.7402943", "16.9468346", "16.9469346"], "type": "isolated_dwelling", "importance": 0.10667666666666664, "lon": "16.9468846", "lat": "58.7402443", "place_rank": 22}, "Ljungbyhed": {"addresstype": "village", "display_name": "Ljungbyhed, Klippans kommun, Skåne län, 264 52, Sverige", "name": "Ljungbyhed", "boundingbox": ["56.0544425", "56.0944425", "13.2135627", "13.2535627"], "type": "village", "importance": 0.14667666666666662, "lon": "13.2335627", "lat": "56.0744425", "place_rank": 19}, "Luleå kommun": {"addresstype": "municipality", "display_name": "Luleå kommun, Norrbottens län, Sverige", "name": "Luleå kommun", "boundingbox": ["65.0696538", "66.2832841", "21.3357196", "23.1383421"], "type": "administrative", "importance": 0.2133433333333333, "lon": "22.166667", "lat": "65.683333", "place_rank": 14}, "Narvik": {"addresstype": "city_block", "display_name": "Narvik, Ladugårdsgärdet, Norra innerstadens stadsdelsområde, Stockholm, Stockholms kommun, Stockholms län, 115 41, Sverige", "name": "Narvik", "boundingbox": ["59.3382963", "59.3582963", "18.0995109", "18.1195109"], "type": "city_block", "importance": 0.06667666666666666, "lon": "18.1095109", "lat": "59.3482963", "place_rank": 25}, "Riksgränsen": {"addresstype": "hamlet", "display_name": "Riksgränsen, Kiruna kommun, Norrbottens län, 981 94, Sverige", "name": "Riksgränsen", "boundingbox": ["68.4072213", "68.4472213", "18.1015871", "18.1415871"], "type": "hamlet", "importance": 0.1333433333333333, "lon": "18.1215871", "lat": "68.4272213", "place_rank": 20}, "Ringmuren": {"addresstype": "isolated_dwelling", "display_name": "Ringmuren, Eskilstuna kommun, Södermanlands län, Sverige", "name": "Ringmuren", "boundingbox": ["59.3735278", "59.3736278", "16.8071901", "16.8072901"], "type": "isolated_dwelling", "importance": 0.10667666666666664, "lon": "16.8072401", "lat": "59.3735778", "place_rank": 22}, "Rosornas Rum": {"addresstype": "shop", "display_name": "Rosornas Rum, 146, Sankt Sigfridsgatan, Skår, Centrum, Göteborg, Göteborgs Stad, Västra Götalands län, 412 67, Sverige", "name": "Rosornas Rum", "boundingbox": ["57.6904852", "57.6905852", "12.0054224", "12.0055224"], "type": "florist", "importance": 9.99999999995449e-06, "lon": "12.0054724", "lat": "57.6905352", "place_rank": 30}, "Sankta Maria kyrka": {"addresstype": "amenity", "display_name": "Sankta Maria kyrka, Norregatan, Östra industriområdet, Åhus, Kristianstads kommun, Skåne län, 296 31, Sverige", "name": "Sankta Maria kyrka", "boundingbox": ["55.9233868", "55.9236787", "14.2926767", "14.2936444"], "type": "place_of_worship", "importance": 9.99999999995449e-06, "lon": "14.293105657330848", "lat": "55.9235387", "place_rank": 30}, "Torup": {"addresstype": "village", "display_name": "Torup, Hylte kommun, Hallands län, 314 41, Sverige", "name": "Torup", "boundingbox": ["56.9335425", "56.9735425", "13.0544620", "13.0944620"], "type": "village", "importance": 0.14667666666666662, "lon": "13.074462", "lat": "56.9535425", "place_rank": 19}, "Trelleborgs kommun": {"addresstype": "municipality", "display_name": "Trelleborgs kommun, Skåne län, Sverige", "name": "Trelleborgs kommun", "boundingbox": ["55.1370957", "55.5107351", "12.9680718", "13.5454655"], "type": "administrative", "importance": 0.2133433333333333, "lon": "13.15", "lat": "55.383333", "place_rank": 14}, "Upp-Van": {"addresstype": "lake", "display_name": "Upp-Van, Älvdalens kommun, Dalarnas län, Sverige", "name": "Upp-Van", "boundingbox": ["61.3982495", "61.4082554", "13.3218500", "13.3398074"], "type": "lake", "importance": 0.1333433333333333, "lon": "13.330190733026242", "lat": "61.40327415", "place_rank": 20}, "Visby": {"addresstype": "city", "display_name": "Visby, Gotlands kommun, Gotlands län, 621 45, Sverige", "name": "Visby", "boundingbox": ["57.4779361", "57.7979361", "18.1379820", "18.4579820"], "type": "city", "importance": 0.18667666666666663, "lon": "18.297982", "lat": "57.6379361", "place_rank": 16}, "Norra Vätterns skärgård": {"addresstype": "leisure", "display_name": "Norra Vätterns skärgård, Askersunds kommun, Örebro län, Sverige", "name": "Norra Vätterns skärgård", "boundingbox": ["58.7453530", "58.8138810", "14.8168220", "14.9354590"], "type": "nature_reserve", "importance": 9.99999999995449e-06, "lon": "14.86676534463951", "lat": "58.778378000000004", "place_rank": 30}, "Västkusten": {"addresstype": "hamlet", "display_name": "Västkusten, Hedemora, Hedemora kommun, Dalarnas län, 776 34, Sverige", "name": "Västkusten", "boundingbox": ["60.2503126", "60.2903126", "15.9364302", "15.9764302"], "type": "hamlet", "importance": 0.1333433333333333, "lon": "15.9564302", "lat": "60.2703126", "place_rank": 20}, "Ör": {"addresstype": "suburb", "display_name": "Ör, Sundbybergs kommun, Stockholms län, 174 53, Sverige", "name": "Ör", "boundingbox": ["59.3549165", "59.3949165", "17.9573937", "17.9973937"], "type": "suburb", "importance": 0.14667666666666662, "lon": "17.9773937", "lat": "59.3749165", "place_rank": 19}, "Hallsta": {"addresstype": "hamlet", "display_name": "Hallsta, Gnesta kommun, Södermanlands län, 646 93, Sverige", "name": "Hallsta", "boundingbox": ["59.1069575", "59.1469575", "17.1942317", "17.2342317"], "type": "hamlet", "importance": 0.1333433333333333, "lon": "17.2142317", "lat": "59.1269575", "place_rank": 20}, "Kramfors kommun": {"addresstype": "municipality", "display_name": "Kramfors kommun, Västernorrlands län, Sverige", "name": "Kramfors kommun", "boundingbox": ["62.5957503", "63.2052339", "17.1787348", "18.9862833"], "type": "administrative", "importance": 0.2133433333333333, "lon": "17.666667", "lat": "62.916667", "place_rank": 14}, "Sollefteå kommun": {"addresstype": "municipality", "display_name": "Sollefteå kommun, Västernorrlands län, Sverige", "name": "Sollefteå kommun", "boundingbox": ["62.8562553", "64.0273809", "15.7920657", "18.0551555"], "type": "administrative", "importance": 0.2133433333333333, "lon": "16.916667", "lat": "63.383333", "place_rank": 14}, "Vetlanda kommun": {"addresstype": "municipality", "display_name": "Vetlanda kommun, Jönköpings län, Sverige", "name": "Vetlanda kommun", "boundingbox": ["57.1333865", "57.5976107", "14.7744441", "15.6547021"], "type": "administrative", "importance": 0.2133433333333333, "lon": "15.167830505066155", "lat": "57.36554305", "place_rank": 14}, "Ådalens Bildemontering AB": {"addresstype": "industrial", "display_name": "Ådalens Bildemontering AB, Kramfors, Gudmundrå distrikt, Kramfors kommun, Västernorrlands län, Sverige", "name": "Ådalens Bildemontering AB", "boundingbox": ["62.9218298", "62.9241324", "17.8061598", "17.8139113"], "type": "industrial", "importance": 0.10667666666666664, "lon": "17.811332233415165", "lat": "62.922961650000005", "place_rank": 22}, "Hisingen": {"addresstype": "island", "display_name": "Hisingen, Västra Götalands län, Sverige", "name": "Hisingen", "boundingbox": ["57.6833757", "57.8644127", "11.7046572", "12.0135055"], "type": "island", "importance": 0.17334333333333332, "lon": "11.901740298360087", "lat": "57.77389735", "place_rank": 17}, "Poseidon": {"addresstype": "tourism", "display_name": "Poseidon, Götaplatsen, Lorensberg, Centrum, Göteborg, Göteborgs Stad, Västra Götalands län, 412 56, Sverige", "name": "Poseidon", "boundingbox": ["57.6971279", "57.6972279", "11.9795410", "11.9796410"], "type": "artwork", "importance": 9.99999999995449e-06, "lon": "11.979591", "lat": "57.6971779", "place_rank": 30}, "Skånes-Fagerhult": {"addresstype": "village", "display_name": "Skånes-Fagerhult, Örkelljunga kommun, Skåne län, 286 73, Sverige", "name": "Skånes-Fagerhult", "boundingbox": ["56.3505060", "56.3905060", "13.4451703", "13.4851703"], "type": "village", "importance": 0.14667666666666662, "lon": "13.4651703", "lat": "56.370506", "place_rank": 19}, "Varbergs kommun": {"addresstype": "municipality", "display_name": "Varbergs kommun, Hallands län, Sverige", "name": "Varbergs kommun", "boundingbox": ["56.9649100", "57.3515944", "11.7318531", "12.7636778"], "type": "administrative", "importance": 0.2133433333333333, "lon": "12.25", "lat": "57.15", "place_rank": 14}, "Varbergs Fästning": {"addresstype": "historic", "display_name": "Varbergs Fästning, Varbergs Strandpromenad, Brunnsberg, Varberg, Varbergs kommun, Hallands län, 432 44, Sverige", "name": "Varbergs Fästning", "boundingbox": ["57.1045615", "57.1076674", "12.2387996", "12.2419908"], "type": "castle", "importance": 9.99999999995449e-06, "lon": "12.240006507481482", "lat": "57.106036849999995", "place_rank": 30},