{"Abbekås": {"type": "village", "lon": 13.6002756, "lat": 55.3992749, "display_name": "Abbekås, Skurups kommun, Skåne län, 274 56, Sverige", "name": "Abbekås"}, "Abbetorp": {"type": "hamlet", "lon": 16.1519627, "lat": 56.9354933, "display_name": "Abbetorp, Nybro kommun, Kalmar län, Sverige", "name": "Abbetorp"}, "Abisko": {"type": "village", "lon": 18.8300059, "lat": 68.3501695, "display_name": "Abisko, Kiruna kommun, Norrbottens län, 981 07, Sverige", "name": "Abisko"}, "Abisko Turiststation": {"type": "camp_site", "lon": 18.79366066187321, "lat": 68.35751085, "display_name": "Abisko turiststation, E 10, Abisko, Kiruna kommun, Norrbottens län, 981 07, Sverige", "name": "Abisko Turiststation"}, "Åbo": {"type": "hamlet", "lon": 12.3527817, "lat": 63.707157, "display_name": "Åbo, Åre kommun, Jämtlands län, Sverige", "name": "Åbo"}, "Addis": {"type": "driving_school", "lon": 17.8880426, "lat": 59.2761115, "display_name": "Addis Trafikskola, Fjärdholmsgränd, Johannesdal, Skärholmen, Skärholmens stadsdelsområde, Stockholm, Stockholms kommun, Stockholms län, 127 43, Sverige", "name": "Addis"}, "Adels": {"type": "residential", "lon": 13.333207188222081, "lat": 59.5222307580122, "display_name": "Adels väg, Fryksta, Kil, Kils kommun, Värmlands län, 665 33, Sverige", "name": "Adels"}, "Adelsö": {"type": "island", "lon": 17.500638803779413, "lat": 59.37676065, "display_name": "Adelsö, Ekerö kommun, Stockholms län, 178 92, Sverige", "name": "Adelsö"}, "Aden": {"type": "islet", "lon": 16.65623332156336, "lat": 57.3862442, "display_name": "Åden, Oskarshamns kommun, Kalmar län, Sverige", "name": "Aden"}, "Adolf Fredrik": {"type": "memorial", "lon": 15.6389188, "lat": 58.3914009, "display_name": "Adolf Fredrik Lindblad, Söderleden, Majelden, Berga, Linköping, Linköpings kommun, Östergötlands län, 587 36, Sverige", "name": "Adolf Fredrik"}, "Adolf Fredriks kyrka": {"type": "place_of_worship", "lon": 18.06012611742738, "lat": 59.3378948, "display_name": "Adolf Fredriks kyrka, 16, Holländargatan, Norrmalm, Norra innerstadens stadsdelsområde, Stockholm, Stockholms kommun, Stockholms län, 111 60, Sverige", "name": "Adolf Fredriks kyrka"}, "Åda": {"type": "farm", "lon": 17.5347048, "lat": 58.9271935, "display_name": "Åda, Trosa kommun, Södermanlands län, 619 30, Sverige", "name": "Åda"}, "Afghanistan": {"type": "country", "lon": 66.17960397332463, "lat": 33.90455937988434, "display_name": "افغانستان", "name": "Afghanistan"}, "Afrika": {"type": "islet", "importance": 0.1333433333333333, "lon": "14.543541315527385", "place_rank": 20, "lat": "56.8329106", "boundingbox": ["56.8323736", "56.8334652", "14.5425879", "14.5443258"], "display_name": "Afrika, Näs, Alvesta kommun, Kronobergs län, Sverige", "addresstype": "islet", "name": "Afrika"}, "Aga": {"type": "industrial", "lon": 16.753545926827705, "lat": 60.61152955, "display_name": "AGA, Barrsätra, Sandviken, Sandvikens kommun, Gävleborgs län, Sverige", "name": "Aga"}, "Älgagården": {"type": "farm", "lon": 14.259428, "lat": 56.0740458, "display_name": "Älgagården, Fallet, Kristianstads kommun, Skåne län, 291 67, Sverige", "name": "Älgagården"}, "Ågås": {"type": "residential", "lon": 13.946438463022789, "lat": 55.54297606779736, "display_name": "Per Ågas gata, Tomelilla, Tomelilla kommun, Skåne län, 273 34, Sverige", "name": "Ågås"}, "Anleberget": {"type": "peak", "lon": 14.3066887, "lat": 60.6922462, "display_name": "Anleberget, Mora kommun, Dalarnas län, Sverige", "name": "Anleberget"}, "Asks Kyrka": {"type": "place_of_worship", "lon": 13.248934050000003, "lat": 55.964205449999994, "display_name": "Asks kyrka, 109, Ask, Svalövs kommun, Skåne län, Sverige", "name": "Asks Kyrka"}, "Åkerås": {"type": "hamlet", "lon": 14.2543172, "lat": 57.0779375, "display_name": "Åkerås, Värnamo kommun, Jönköpings län, 330 18, Sverige", "name": "Åkerås"}, "Akkajaure": {"type": "reservoir", "lon": 17.481868939632882, "lat": 67.66586079999999, "display_name": "Akkajaure, Norrbottens län, Sverige", "name": "Akkajaure"}, "Äckran": {"type": "isolated_dwelling", "lon": 12.9425247, "lat": 59.6063861, "display_name": "Äckran, Arvika kommun, Värmlands län, Sverige", "name": "Äckran"}, "Ala": {"type": "hamlet", "lon": 17.1466583, "lat": 61.219213, "display_name": "Ala, Ljusne, Söderhamns kommun, Gävleborgs län, 826 76, Sverige", "name": "Ala"}, "Alabama": {"type": "residential", "lon": 16.606302889694444, "lat": 57.778137366682984, "display_name": "Alabamagatan, Djurgården, Gertrudsvik, Västervik, Västerviks kommun, Kalmar län, 593 40, Sverige", "name": "Alabama"}, "Alaska": {"type": "neighbourhood", "lon": 17.7736243, "lat": 62.9217072, "display_name": "Alaska, Kramfors, Gudmundrå distrikt, Kramfors kommun, Västernorrlands län, 872 24, Sverige", "name": "Alaska"}, "Albanien": {"type": "country", "lon": 20.0010817067209, "lat": 41.180750221339345, "display_name": "Shqipëria", "name": "Albanien"}, "Albano": {"type": "hamlet", "lon": 18.0494322, "lat": 59.6628273, "display_name": "Albano, Sigtuna kommun, Stockholms län, 195 93, Sverige", "name": "Albano"}, "Alberta": {"type": "hamlet", "lon": 13.3194795, "lat": 55.6249376, "display_name": "Alberta, Staffanstorps kommun, Skåne län, 247 99, Sverige", "name": "Alberta"}, "Alby gård": {"type": "isolated_dwelling", "lon": 17.6493054, "lat": 59.5766291, "display_name": "Alby Gård, Alby, Håbo-Tibble kyrkby, Upplands-Bro kommun, Stockholms län, 197 92, Sverige", "name": "Alby gård"}, "Alby": {"type": "village", "lon": 15.4770661, "lat": 62.4942274, "display_name": "Alby, Borgsjö distrikt, Ånge kommun, Västernorrlands län, 841 44, Sverige", "name": "Alby"}, "Ale": {"type": "administrative", "lon": 12.283333, "lat": 58.0, "display_name": "Ale kommun, Västra Götalands län, Sverige", "name": "Ale"}, "Aleppo": {"type": "restaurant", "lon": 17.9233162, "lat": 59.2691208, "display_name": "Aleppo Kebab, 1, Geometrivägen, Kungens kurva, Huddinge kommun, Stockholms län, 141 75, Sverige", "name": "Aleppo"}, "Alexandra": {"type": "restaurant", "lon": 14.2885595, "lat": 58.3012979, "display_name": "alexandra, Stora Torget, Hjo, Hjo kommun, Västra Götalands län, 544 30, Sverige", "name": "Alexandra"}, "Ålarve": {"type": "isolated_dwelling", "lon": 18.4802096, "lat": 57.173063, "display_name": "Ålarve, Ronehamn, Gotlands kommun, Gotlands län, 623 47, Sverige", "name": "Ålarve"}, "Alger": {"type": "isolated_dwelling", "lon": 16.2522905, "lat": 58.2723688, "display_name": "Alger, Åtvidabergs kommun, Östergötlands län, Sverige", "name": "Alger"}, "Algeriet": {"type": "country", "lon": 2.1453686202510687, "lat": 28.260342348758456, "display_name": "Algérie / ⵍⵣⵣⴰⵢⴻⵔ / الجزائر", "name": "Algeriet"}, "Alingsås": {"type": "town", "lon": 12.5329678, "lat": 57.9299658, "display_name": "Alingsås, Alingsås kommun, Västra Götalands län, 441 30, Sverige", "name": "Alingsås"}, "Alsike kyrka": {"type": "place_of_worship", "lon": 17.68383225050635, "lat": 59.73274285, "display_name": "Alsike kyrka, 1, Alsike kyrka, Knivsta kommun, Uppsala län, 741 92, Sverige", "name": "Alsike kyrka"}, "Almansgrundet": {"type": "islet", "lon": 22.824102038783195, "lat": 65.75166060000001, "display_name": "Almansgrundet, Kalix kommun, Norrbottens län, Sverige", "name": "Almansgrundet"}, "Almberg": {"type": "hamlet", "lon": 15.1621487, "lat": 60.7442651, "display_name": "Almberg, Leksands kommun, Dalarnas län, Sverige", "name": "Almberg"}, "Almen": {"type": "neighbourhood", "lon": 16.3765680747834, "lat": 56.5254685, "display_name": "Almen, Mörbylånga, Mörbylånga kommun, Kalmar län, Sverige", "name": "Almen"}, "Almunge": {"type": "administrative", "lon": 18.0461233, "lat": 59.8773068, "display_name": "Almunge, Uppsala kommun, Uppsala län, Sverige", "name": "Almunge"}, "Alnarp": {"type": "hamlet", "lon": 13.0834259, "lat": 55.6576066, "display_name": "Alnarp, Lomma, Lomma kommun, Skåne län, 234 56, Sverige", "name": "Alnarp"}, "Alnö": {"type": "administrative", "lon": 17.512937830199135, "lat": 62.40391015, "display_name": "Alnö distrikt, Sundsvalls kommun, Västernorrlands län, Sverige", "name": "Alnö"}, "Alen": {"type": "lake", "lon": 15.89494526906234, "lat": 57.3771452, "display_name": "Alen, Hultsfreds kommun, Kalmar län, Sverige", "name": "Alen"}, "Alperna": {"type": "peak", "lon": 16.7771488, "lat": 65.1502138, "display_name": "Alperna, Storumans kommun, Västerbottens län, Sverige", "name": "Alperna"}, "Alstadgården": {"type": "farm", "lon": 13.2463889, "lat": 55.4353242, "display_name": "Alstadgården, Trelleborgs kommun, Skåne län, Sverige", "name": "Alstadgården"}, "Alsen": {"type": "lake", "lon": 14.921720335841034, "lat": 58.868654250000006, "display_name": "Alsen, Askersund, Askersunds kommun, Örebro län, Sverige", "name": "Alsen"}, "Alster": {"type": "village", "lon": 13.6084317, "lat": 59.3981176, "display_name": "Alster, Karlstads kommun, Värmlands län, 656 38, Sverige", "name": "Alster"}, "Österbåden": {"type": "islet", "lon": 17.032509450425955, "lat": 58.16313785, "display_name": "Österbåden, Valdemarsviks kommun, Östergötlands län, Sverige", "name": "Österbåden"}, "Alstern": {"type": "lake", "lon": 13.90738744571538, "lat": 59.67943395, "display_name": "Alstern, Filipstads kommun, Värmlands län, Sverige", "name": "Alstern"}, "Alsterån": {"type": "river", "lon": 15.9227411, "lat": 56.9391539, "display_name": "Alsterån, Sverige", "name": "Alsterån"}, "Ålbäcken": {"type": "stream", "lon": 12.3961346, "lat": 57.2986742, "display_name": "Albäcken, Varbergs kommun, Hallands län, Sverige", "name": "Ålbäcken"}, "Aludden": {"type": "islet", "lon": 17.730106665949727, "lat": 59.30576375, "display_name": "Aludden, Landholmen, Tureholm, Ekerö kommun, Stockholms län, Sverige", "name": "Aludden"}, "Alunda": {"type": "village", "lon": 18.0780717, "lat": 60.0664532, "display_name": "Alunda, Östhammars kommun, Uppsala län, 747 31, Sverige", "name": "Alunda"}, "Alvastra": {"type": "farm", "lon": 14.656399, "lat": 58.2953731, "display_name": "Alvastra, Västra Tollstad, Ödeshögs kommun, Östergötlands län, 599 93, Sverige", "name": "Alvastra"}, "Alvesta": {"type": "town", "lon": 14.5546493, "lat": 56.8997562, "display_name": "Alvesta, Alvesta kommun, Kronobergs län, 342 30, Sverige", "name": "Alvesta"}, "Alvik": {"type": "administrative", "lon": 20.29444778781355, "lat": 63.78900335, "display_name": "Alvik, Umeå, Umeå kommun, Västerbottens län, Sverige", "name": "Alvik"}, "Arlöv": {"type": "town", "lon": 13.0777501, "lat": 55.6378013, "display_name": "Arlöv, Malmö, Burlövs kommun, Skåne län, 232 34, Sverige", "name": "Arlöv"}, "Amazonas": {"type": "attraction", "lon": 17.3378278, "lat": 60.6553498, "display_name": "Flodfärd i Amazonas, Spireavägen, Östnäs, Furuvik, Gävle kommun, Gävleborgs län, 814 91, Sverige", "name": "Amazonas"}, "America": {"type": "confectionery", "lon": 18.0725607, "lat": 59.3224195, "display_name": "Tasty America, Triewaldsgränd, Gamla stan, Södermalms stadsdelsområde, Stockholm, Stockholms kommun, Stockholms län, 111 29, Sverige", "name": "America"}, "USA": {"type": "country", "lon": -113.70839920498176, "lat": 46.56287944026357, "display_name": "United States", "name": "USA"}, "Amerikas": {"type": "diplomatic", "lon": 18.105810773701094, "lat": 59.3335687, "display_name": "Förenta staternas ambassad, Dag Hammarskjölds Väg, Östermalm, Norra innerstadens stadsdelsområde, Stockholm, Stockholms kommun, Stockholms län, 115 27, Sverige", "name": "Amerikas"}, "Amhult": {"type": "locality", "lon": 11.7727947, "lat": 57.7128708, "display_name": "Amhult, Snäckeberget, Nolered, Hisingen, Torslanda, Göteborgs Stad, Västra Götalands län, 423 37, Sverige", "name": "Amhult"}, "Ammarnäs": {"type": "village", "lon": 16.2057392, "lat": 65.9605725, "display_name": "Ammarnäs, Sorsele kommun, Västerbottens län, 924 95, Sverige", "name": "Ammarnäs"}, "Amsterdam": {"type": "isolated_dwelling", "lon": 18.3551731, "lat": 60.1884017, "display_name": "Amsterdam, Östhammars kommun, Uppsala län, 742 95, Sverige", "name": "Amsterdam"}, "Ana": {"type": "hamlet", "lon": 13.1849803, "lat": 59.6316741, "display_name": "Åna, Kils kommun, Värmlands län, Sverige", "name": "Ana"}, "Ängdala": {"type": "farmyard", "lon": 13.101002917730007, "lat": 55.48714355, "display_name": "Ängdala, Västra Ingelstad, Vellinge kommun, Skåne län, Sverige", "name": "Ängdala"}, "Andern": {"type": "lake", "lon": 15.730583637469788, "lat": 59.699722449999996, "display_name": "Åndern, Skinnskattebergs kommun, Västmanlands län, Sverige", "name": "Andern"}, "Åndenäs": {"type": "hamlet", "lon": 15.9118661, "lat": 58.8555503, "display_name": "Åndenäs, Finspångs kommun, Östergötlands län, 612 71, Sverige", "name": "Åndenäs"}, "Anderstorp": {"type": "suburb", "lon": 20.9688933, "lat": 64.7427892, "display_name": "Anderstorp, Skellefteå, Skellefteå kommun, Västerbottens län, 931 59, Sverige", "name": "Anderstorp"}, "Ängeså": {"type": "unclassified", "lon": 22.44128391744518, "lat": 66.69671382210336, "display_name": "Vallsjärv-Ängeså, Ängesån, Överkalix kommun, Norrbottens län, Sverige", "name": "Ängeså"}, "Angola": {"type": "country", "lon": 17.991216314107252, "lat": -12.268316392279756, "display_name": "Angola", "name": "Angola"}, "Ängra": {"type": "isolated_dwelling", "lon": 15.4122391, "lat": 61.936362, "display_name": "Ängra, Ljusdals kommun, Gävleborgs län, Sverige", "name": "Ängra"}, "Anneborg": {"type": "hamlet", "lon": 14.0714289, "lat": 55.8956276, "display_name": "Anneborg, Kristianstads kommun, Skåne län, 297 72, Sverige", "name": "Anneborg"}, "Annedal": {"type": "administrative", "lon": 11.9583646, "lat": 57.692221, "display_name": "Annedal, Centrum, Göteborgs Stad, Västra Götalands län, Sverige", "name": "Annedal"}, "Ans": {"type": "unclassified", "lon": 20.57910494834882, "lat": 67.10130025505788, "display_name": "5:ans väg, Gällivare kommun, Norrbottens län, Sverige", "name": "Ans"}, "Antarktis": {"type": "garden", "importance": 9.99999999995449e-06, "lon": "17.06153244427481", "place_rank": 30, "lat": "59.634193350000004", "boundingbox": ["59.6341539", "59.6342461", "17.0614484", "17.0616130"], "display_name": "Antarktis, Strömgatan, Lillsidan, Enköping, Enköpings kommun, Uppsala län, 745 63, Sverige", "addresstype": "leisure", "name": "Antarktis"}, "Åsta": {"type": "islet", "lon": 11.230014467498627, "lat": 58.323893049999995, "display_name": "Åsta, Sotenäs kommun, Västra Götalands län, Sverige", "name": "Åsta"}, "Aspberget": {"type": "peak", "lon": 21.6534293, "lat": 66.3723951, "display_name": "Aspberget, Bodens kommun, Norrbottens län, Sverige", "name": "Aspberget"}, "Äppelviken": {"type": "administrative", "lon": 17.971132, "lat": 59.3262251, "display_name": "Äppelviken, Bromma stadsdelsområde, Stockholms kommun, Stockholms län, Sverige", "name": "Äppelviken"}, "Arabien": {"type": "isolated_dwelling", "lon": 16.5331985, "lat": 57.7302349, "display_name": "Arabien, Gunnebo, Västerviks kommun, Kalmar län, 593 96, Sverige", "name": "Arabien"}, "Årtakan": {"type": "farm", "lon": 12.3302463, "lat": 59.7062947, "display_name": "Årtakan, Eda kommun, Värmlands län, Sverige", "name": "Årtakan"}, "Arboga": {"type": "town", "lon": 15.8396643, "lat": 59.394187, "display_name": "Arboga, Arboga kommun, Västmanlands län, 732 30, Sverige", "name": "Arboga"}, "Arbogaån": {"type": "river", "lon": 15.6978109, "lat": 59.4091633, "display_name": "Arbogaån, Örebro län, Sverige", "name": "Arbogaån"}, "Arebro": {"type": "isolated_dwelling", "lon": 15.1582668, "lat": 57.0026492, "display_name": "Arebro, Växjö kommun, Kronobergs län, Sverige", "name": "Arebro"}, "Arby": {"type": "hamlet", "lon": 14.0546645, "lat": 58.2877142, "display_name": "Årby, Blikstorp, Hjo kommun, Västra Götalands län, Sverige", "name": "Arby"}, "Arån": {"type": "river", "lon": 13.802164058544612, "lat": 62.78109152033362, "display_name": "Arån, Bergs kommun, Jämtlands län, Sverige", "name": "Arån"}, "Arlid": {"type": "hamlet", "lon": 12.4605667, "lat": 58.0214985, "display_name": "Arelid, Långareds distrikt, Alingsås kommun, Västra Götalands län, 441 91, Sverige", "name": "Arlid"}, "Arendal": {"type": "administrative", "lon": 11.834334029788277, "lat": 57.7077584, "display_name": "Arendal, Hisingen, Göteborgs Stad, Västra Götalands län, Sverige", "name": "Arendal"}, "Argentina": {"type": "country", "importance": 0.34667666666666663, "lon": "-65.20613870950321", "place_rank": 4, "lat": "-36.74740522307737", "boundingbox": ["-55.1817000", "-21.7809000", "-73.5605000", "-53.6375000"], "display_name": "Argentina", "addresstype": "country", "name": "Argentina"}, "Argentinas": {"type": "diplomatic", "lon": 18.0911913, "lat": 59.3365697, "display_name": "Argentinas ambassad, Narvavägen, Östermalm, Norra innerstadens stadsdelsområde, Stockholm, Stockholms kommun, Stockholms län, 115 22, Sverige", "name": "Argentinas"}, "Arholma": {"type": "island", "lon": 19.1123757310895, "lat": 59.84559325, "display_name": "Arholma, Norrtälje kommun, Stockholms län, 764 54, Sverige", "name": "Arholma"}, "Arild": {"type": "village", "lon": 12.5721097, "lat": 56.2738191, "display_name": "Arild, Höganäs kommun, Skåne län, 263 73, Sverige", "name": "Arild"}, "Arizona": {"type": "restaurant", "lon": 13.4257664, "lat": 59.3774873, "display_name": "Arizona Steakhouse, 1, Frykmans väg, Bergvik, Karlstad, Karlstads kommun, Värmlands län, 653 46, Sverige", "name": "Arizona"}, "Arjeplog": {"type": "town", "lon": 17.89168, "lat": 66.0517686, "display_name": "Arjeplog, Arjeplogs kommun, Norrbottens län, 938 32, Sverige", "name": "Arjeplog"}, "Arnäs": {"type": "administrative", "lon": 18.85127894691047, "lat": 63.3355733, "display_name": "Arnäs distrikt, Örnsköldsviks kommun, Västernorrlands län, Sverige", "name": "Arnäs"}, "Arkösund": {"type": "administrative", "lon": 16.9368276, "lat": 58.4900889, "display_name": "Arkösund, Norrköpings kommun, Östergötlands län, Sverige", "name": "Arkösund"}, "Arlanda": {"type": "aerodrome", "lon": 17.937044334194475, "lat": 59.6467921, "display_name": "Stockholm-Arlanda flygplats, Arlandaleden, Sigtuna kommun, Stockholms län, 190 45, Sverige", "name": "Arlanda"}, "Ärlebäcken": {"type": "isolated_dwelling", "lon": 15.1435563, "lat": 58.1766637, "display_name": "Ärlebäcken, Boxholms kommun, Östergötlands län, Sverige", "name": "Ärlebäcken"}, "Ålbo": {"type": "hamlet", "lon": 16.9890893, "lat": 60.3426956, "display_name": "Ålbo, Gävle kommun, Gävleborgs län, 818 95, Sverige", "name": "Ålbo"}, "Ären": {"type": "islet", "lon": 11.503830745322151, "lat": 57.94675875, "display_name": "Ären, Tjörns kommun, Västra Götalands län, Sverige", "name": "Ären"}, "Armenien": {"type": "country", "lon": 45.07879294551591, "lat": 40.30659086210714, "display_name": "Հայաստան", "name": "Armenien"}, "Ärendal": {"type": "administrative", "lon": 11.834334029788277, "lat": 57.7077584, "display_name": "Arendal, Hisingen, Göteborgs Stad, Västra Götalands län, Sverige", "name": "Ärendal"}, "Arnö": {"type": "island", "lon": 17.191429708410443, "lat": 59.49031115, "display_name": "Arnö, Enköpings kommun, Uppsala län, Sverige", "name": "Arnö"}, "Arsenal": {"type": "residential", "lon": 13.099041742272759, "lat": 55.91548430407865, "display_name": "Arsenalgatan, Svalöv, Svalövs kommun, Skåne län, 268 33, Sverige", "name": "Arsenal"}, "Årenäs": {"type": "hamlet", "lon": 12.3582329, "lat": 57.4952421, "display_name": "Årenäs, Marks kommun, Västra Götalands län, 439 72, Sverige", "name": "Årenäs"}, "Arvidsjaur": {"type": "town", "lon": 19.1695024, "lat": 65.5947672, "display_name": "Arvidsjaur, Arvidsjaurs kommun, Norrbottens län, 933 31, Sverige", "name": "Arvidsjaur"}, "Arvika": {"type": "town", "lon": 12.5916225, "lat": 59.6543555, "display_name": "Arvika, Arvika kommun, Värmlands län, 671 32, Sverige", "name": "Arvika"}, "Asch": {"type": "restaurant", "lon": 17.3122818, "lat": 62.3917894, "display_name": "Teater ÄSCH Café, Hamngatan, Stenstan, Sundsvalls tätortsområde, Sundsvalls Gustav Adolfs distrikt, Sundsvalls kommun, Västernorrlands län, 851 96, Sverige", "name": "Asch"}, "Ässi": {"type": "track", "lon": 22.614365371427866, "lat": 67.76868115244625, "display_name": "Assivägen, Pajala kommun, Norrbottens län, Sverige", "name": "Ässi"}, "Asien": {"type": "isolated_dwelling", "importance": 0.10667666666666664, "lon": "14.3364473", "place_rank": 22, "lat": "60.0330605", "boundingbox": ["60.0330105", "60.0331105", "14.3363973", "14.3364973"], "display_name": "Asien, Filipstads kommun, Värmlands län, Sverige", "addresstype": "isolated_dwelling", "name": "Asien"}, "Ask": {"type": "hamlet", "lon": 15.1345369, "lat": 58.5194108, "display_name": "Ask, Motala kommun, Östergötlands län, 591 91, Sverige", "name": "Ask"}, "Asker": {"type": "village", "lon": 15.474376, "lat": 59.1489606, "display_name": "Askersby, Örebro kommun, Örebro län, Sverige", "name": "Asker"}, "Askesjön": {"type": "lake", "lon": 11.969967152804141, "lat": 59.8355843, "display_name": "Askesjön, Skillingsfors, Eda kommun, Värmlands län, Sverige", "name": "Askesjön"}, "Askersund": {"type": "town", "lon": 14.9175295, "lat": 58.884598, "display_name": "Askersund, Askersunds kommun, Örebro län, 696 31, Sverige", "name": "Askersund"}, "Askrikefjärden": {"type": "strait", "lon": 18.225750004872374, "lat": 59.38497575, "display_name": "Askrikefjärden, Vaxholm, Vaxholms kommun, Stockholms län, Sverige", "name": "Askrikefjärden"}, "Aspen": {"type": "lake", "lon": 12.236746905951955, "lat": 57.763348050000005, "display_name": "Aspen, Lerums distrikt, Lerum, Lerums kommun, Västra Götalands län, Sverige", "name": "Aspen"}, "Asplången": {"type": "lake", "lon": 16.104508738890864, "lat": 58.5022517, "display_name": "Asplången, Västra Husby, Luddingsbo, Söderköpings kommun, Östergötlands län, Sverige", "name": "Asplången"}, "Åsebacken": {"type": "stream", "lon": 12.2947815, "lat": 58.6870274, "display_name": "Åsebäcken, Åsen, Melleruds kommun, Västra Götalands län, Sverige", "name": "Åsebacken"}, "Åstrand": {"type": "hamlet", "lon": 13.3960451, "lat": 60.2927249, "display_name": "Åstrand, Norra Ny distrikt, Torsby kommun, Värmlands län, Sverige", "name": "Åstrand"}, "Aten": {"type": "isolated_dwelling", "lon": 12.48446, "lat": 58.9077696, "display_name": "Aten, Kraksbyn, Åmåls kommun, Västra Götalands län, Sverige", "name": "Aten"}, "Atlant": {"type": "trunk", "lon": 13.472369698266506, "lat": 63.34290923804416, "display_name": "Atlantvägen, Järpen, Åre kommun, Jämtlands län, 837 31, Sverige", "name": "Atlant"}, "Atlantis": {"type": "bed", "lon": 17.9095113, "lat": 59.2674478, "display_name": "Atlantis, 2, Dialoggatan, Kungens kurva, Huddinge kommun, Stockholms län, 141 75, Sverige", "name": "Atlantis"}, "Atlas": {"type": "residential", "lon": 17.872722816947608, "lat": 59.413554399999995, "display_name": "Kvarter Atlas, Barkarby, Järfälla kommun, Sollentuna kommun, Stockholms län, Sverige", "name": "Atlas"}, "Austin": {"type": "industrial", "lon": 12.282644378553238, "lat": 57.86033535, "display_name": "Austin Sverige AB, Kroksjödal, Stora Lundby distrikt, Lerums kommun, Västra Götalands län, Sverige", "name": "Austin"}, "Australia": {"type": "country", "importance": 0.34667666666666663, "lon": "136.02343388946585", "place_rank": 4, "lat": "-24.54560646004601", "boundingbox": ["-55.2929000", "-9.1119000", "72.2569000", "168.1566000"], "display_name": "Australia", "addresstype": "country", "name": "Australia"}, "Australien": {"type": "country", "lon": 136.02343388946585, "lat": -24.54560646004601, "display_name": "Australia", "name": "Australien"}, "Australiens": {"type": "diplomatic", "lon": 18.0556548, "lat": 59.3301208, "display_name": "Australiens ambassad, Nils Ericsons Plan, Klara, Norrmalm, Norra innerstadens stadsdelsområde, Stockholm, Stockholms kommun, Stockholms län, 111 64, Sverige", "name": "Australiens"}, "Autio": {"type": "hamlet", "lon": 23.2441686, "lat": 67.2527526, "display_name": "Autio, Pajala kommun, Norrbottens län, 984 91, Sverige", "name": "Autio"}, "Avern": {"type": "lake", "lon": 15.518369896802009, "lat": 58.9030102, "display_name": "Avern, Hallsbergs kommun, Örebro län, Sverige", "name": "Avern"}, "Avesta": {"type": "town", "lon": 16.1826996, "lat": 60.1469553, "display_name": "Avesta, Avesta kommun, Dalarnas län, 774 41, Sverige", "name": "Avesta"}, "Storforsen": {"type": "river", "lon": 21.812932545486337, "lat": 66.15694854832542, "display_name": "Storforsen, Bodens kommun, Norrbottens län, Sverige", "name": "Storforsen"}, "Åbyn": {"type": "village", "lon": 21.3353572, "lat": 65.0323827, "display_name": "Åbyn, Skellefteå kommun, Västerbottens län, Sverige", "name": "Åbyn"}, "Blåbo": {"type": "isolated_dwelling", "lon": 17.1927527, "lat": 59.6567122, "display_name": "Blåbo, Enköpings kommun, Uppsala län, Sverige", "name": "Blåbo"}, "Bad": {"type": "beach", "lon": 17.872411138460613, "lat": 58.82926875, "display_name": "Bad, Nynäshamns kommun, Stockholms län, Sverige", "name": "Bad"}, "Båden": {"type": "islet", "lon": 17.048027796843304, "lat": 58.3566427, "display_name": "Yttre båden, Söderköpings kommun, Östergötlands län, Sverige", "name": "Båden"}, "Baden": {"type": "islet", "lon": 17.048027796843304, "lat": 58.3566427, "display_name": "Yttre båden, Söderköpings kommun, Östergötlands län, Sverige", "name": "Baden"}, "Bada": {"type": "hamlet", "lon": 13.1194811, "lat": 60.1094901, "display_name": "Bada, Fryksände distrikt, Torsby kommun, Värmlands län, Sverige", "name": "Bada"}, "Badhusparken": {"type": "forest", "lon": 12.973237267935934, "lat": 55.57012615, "display_name": "Badhusparken, Hyllie, Hyllievång, Väster, Malmö, Malmö kommun, Skåne län, Sverige", "name": "Badhusparken"}, "Östra Bår": {"type": "restaurant", "lon": 17.7882492, "lat": 59.7253288, "display_name": "Grekens Taverna & Bar, 8, Centralvägen, Nya Tarv, Knivsta, Knivsta kommun, Uppsala län, 741 40, Sverige", "name": "Östra Bår"}, "Bästen": {"type": "lake", "lon": 15.146989029297135, "lat": 60.4777861, "display_name": "Bästen, Gagnefs kommun, Dalarnas län, Sverige", "name": "Bästen"}, "Bastena": {"type": "hamlet", "lon": 13.2330493, "lat": 56.390474, "display_name": "Stora Bastena, Laholms kommun, Hallands län, 312 98, Sverige", "name": "Bastena"}, "Lagaholm": {"type": "castle", "lon": 13.050387932961847, "lat": 56.51617025, "display_name": "Lagaholm, Lagavägen, Laholm, Laholms kommun, Hallands län, 312 30, Sverige", "name": "Lagaholm"}, "Bagarmossen": {"type": "suburb", "lon": 18.1332363, "lat": 59.2773111, "display_name": "Bagarmossen, Skarpnäcks stadsdelsområde, Stockholm, Stockholms kommun, Stockholms län, 128 45, Sverige", "name": "Bagarmossen"}, "Bagdad": {"type": "restaurant", "lon": 15.2164453, "lat": 59.2762995, "display_name": "Bagdad, 18, Fredsgatan, Norr, Örebro, Örebro kommun, Örebro län, 703 62, Sverige", "name": "Bagdad"}, "Baggensfjärden": {"type": "bay", "lon": 18.321254147271766, "lat": 59.294471900000005, "display_name": "Baggensfjärden, Saltsjöbaden, Nacka kommun, Stockholms län, Sverige", "name": "Baggensfjärden"}, "Bal": {"type": "hamlet", "lon": 18.6320296, "lat": 57.6436307, "display_name": "Bäl, Gotlands kommun, Gotlands län, Sverige", "name": "Bal"}, "Balderup": {"type": "isolated_dwelling", "lon": 12.5630818, "lat": 56.2711809, "display_name": "Balderup, Arild, Höganäs kommun, Skåne län, 263 73, Sverige", "name": "Balderup"}, "Bali": {"type": "path", "lon": 17.883418375524947, "lat": 59.229433940733884, "display_name": "Bali, Loviseberg, Huddinge kommun, Stockholms län, 146 54, Sverige", "name": "Bali"}, "Balingsta": {"type": "village", "lon": 17.4235556, "lat": 59.7633364, "display_name": "Balingsta, Uppsala kommun, Uppsala län, Sverige", "name": "Balingsta"}, "Balkan": {"type": "restaurant", "lon": 18.140633466625882, "lat": 59.1939376, "display_name": "Balkan Steak House, Lignells väg, Söderhagen, Vega, Haninge kommun, Stockholms län, 136 49, Sverige", "name": "Balkan"}, "Vallentuna kyrka": {"type": "place_of_worship", "lon": 18.073966808957202, "lat": 59.531331050000006, "display_name": "Vallentuna kyrka, Kyrkvägen, Sörgården, Vallentuna, Vallentuna kommun, Stockholms län, 186 39, Sverige", "name": "Vallentuna kyrka"}, "Balter": {"type": "lake", "lon": 13.39560110103839, "lat": 61.4592016, "display_name": "Bälter-Matstjärnen, Älvdalens kommun, Dalarnas län, Sverige", "name": "Balter"}, "Baltiken": {"type": "lake", "lon": 15.522830812792074, "lat": 65.3911138, "display_name": "Baltiken, Vilhelmina kommun, Västerbottens län, Sverige", "name": "Baltiken"}, "Ban": {"type": "residential", "lon": 20.20582164682802, "lat": 67.86592007192081, "display_name": "Bangatan, Luossavaara, Kiruna kommun, Norrbottens län, 981 34, Sverige", "name": "Ban"}, "Brännäs": {"type": "hamlet", "lon": 18.3435194, "lat": 65.203653, "display_name": "Brännäs, Malå sameby, Malå kommun, Västerbottens län, Sverige", "name": "Brännäs"}, "Bandhagen": {"type": "administrative", "lon": 18.0510706, "lat": 59.2680269, "display_name": "Bandhagen, Enskede-Årsta-Vantörs stadsdelsområde, Stockholms kommun, Stockholms län, Sverige", "name": "Bandhagen"}, "Barnens Ö": {"type": "protected_area", "lon": 18.90795955453048, "lat": 59.9156488, "display_name": "Barnens Ö naturreservat, Norrtälje kommun, Stockholms län, Sverige", "name": "Barnens Ö"}, "Bangkok": {"type": "massage", "lon": 17.0765991, "lat": 59.6344026, "display_name": "Bangkok, Sandgatan, Munksundet, Enköping, Enköpings kommun, Uppsala län, 745 35, Sverige", "name": "Bangkok"}, "Banken": {"type": "hamlet", "lon": 12.5759365, "lat": 58.6098637, "display_name": "Banken, Melleruds kommun, Västra Götalands län, 460 65, Sverige", "name": "Banken"}, "Bantorget": {"type": "park", "lon": 13.096365519582566, "lat": 55.77534935, "display_name": "Bantorget, Ljungen, Furulund, Kävlinge kommun, Skåne län, Sverige", "name": "Bantorget"}, "Backbyn": {"type": "hamlet", "lon": 14.8585574, "lat": 60.7712186, "display_name": "Backbyn, Siljansnäs, Leksands kommun, Dalarnas län, 793 60, Sverige", "name": "Backbyn"}, "Barcelona": {"type": "artwork", "lon": 18.072772, "lat": 59.3354832, "display_name": "Chloe in Barcelona, Stureplan, Eriksberg, Östermalm, Norra innerstadens stadsdelsområde, Stockholm, Stockholms kommun, Stockholms län, 106 63, Sverige", "name": "Barcelona"}, "Bard": {"type": "residential", "lon": 17.93042919925358, "lat": 59.338836516752046, "display_name": "Bårdgränd, Åkeshov, Bromma stadsdelsområde, Stockholm, Stockholms kommun, Stockholms län, 168 75, Sverige", "name": "Bard"}, "Bredsund": {"type": "hamlet", "lon": 18.6835034, "lat": 60.1085634, "display_name": "Bredsund, Norrtälje kommun, Stockholms län, 760 49, Sverige", "name": "Bredsund"}, "Barkarby": {"type": "suburb", "lon": 17.8619775, "lat": 59.401003, "display_name": "Barkarby, Järfälla kommun, Sollentuna kommun, Stockholms län, 175 06, Sverige", "name": "Barkarby"}, "Barken": {"type": "lake", "lon": 15.510479175014119, "lat": 60.116663900000006, "display_name": "Norra Barken, Smedjebacken, Smedjebackens kommun, Dalarnas län, Sverige", "name": "Barken"}, "Barkansjö": {"type": "hamlet", "lon": 14.588053, "lat": 57.5616386, "display_name": "Barkansjö, Nässjö kommun, Jönköpings län, 571 66, Sverige", "name": "Barkansjö"}, "Barsebäck": {"type": "village", "lon": 12.9563659, "lat": 55.7716614, "display_name": "Barsebäck, Kävlinge kommun, Skåne län, 246 55, Sverige", "name": "Barsebäck"}, "Basel": {"type": "hairdresser", "lon": 20.3661497, "lat": 63.7084805, "display_name": "Basel, 10, Trädgårdsgatan, Djupvik, Holmsunds Distrikt, Holmsund, Umeå kommun, Västerbottens län, 913 31, Sverige", "name": "Basel"}, "Bastås": {"type": "hamlet", "lon": 12.7578108, "lat": 57.8684431, "display_name": "Bastås, Nårunga distrikt, Vårgårda kommun, Västra Götalands län, 441 94, Sverige", "name": "Bastås"}, "Bastu": {"type": "yes", "lon": 12.11542682647353, "lat": 63.2862539, "display_name": "Bastu, Vackerlidsvägen, Storvallen, Åre kommun, Jämtlands län, 830 19, Sverige", "name": "Bastu"}, "Bastuträsk": {"type": "village", "lon": 19.3472573, "lat": 64.0211393, "display_name": "Bastuträsk, Bjurholms distrikt, Bjurholms kommun, Västerbottens län, Sverige", "name": "Bastuträsk"}, "Bat": {"type": "islet", "lon": 15.211461026047107, "lat": 56.1381826, "display_name": "Jakobs båt, Ronneby kommun, Blekinge län, Sverige", "name": "Bat"}, "Beirut": {"type": "restaurant", "lon": 20.305328, "lat": 63.8508001, "display_name": "Beirut, Formvägen, Ersboda södra industriområde, Ersboda, Umeå, Umeå kommun, Västerbottens län, 906 21, Sverige", "name": "Beirut"}, "Belgi": {"type": "country", "lon": 4.759349993241782, "lat": 51.138380156713716, "display_name": "België / Belgique / Belgien", "name": "Belgi"}, "Belgien": {"type": "country", "lon": 4.759349993241782, "lat": 51.138380156713716, "display_name": "België / Belgique / Belgien", "name": "Belgien"}, "Belse": {"type": "unclassified", "lon": 16.58808031042745, "lat": 61.21420379642271, "display_name": "Belsevägen, Sibo, Kilafors, Bollnäs kommun, Gävleborgs län, 823 30, Sverige", "name": "Belse"}, "Ängelsberg": {"type": "hamlet", "lon": 16.0107188, "lat": 59.9589536, "display_name": "Ängelsberg, Fagersta kommun, Västmanlands län, 737 90, Sverige", "name": "Ängelsberg"}, "Bengtsfors": {"type": "town", "lon": 12.222887, "lat": 59.0309288, "display_name": "Bengtsfors, Bengtsfors kommun, Västra Götalands län, 666 30, Sverige", "name": "Bengtsfors"}, "Berg": {"type": "administrative", "lon": 13.883333, "lat": 62.866667, "display_name": "Bergs kommun, Jämtlands län, Sverige", "name": "Berg"}, "Berga": {"type": "administrative", "lon": 15.629213412053605, "lat": 58.3663081, "display_name": "Berga, Linköpings kommun, Östergötlands län, Sverige", "name": "Berga"}, "Bergvik": {"type": "village", "lon": 16.8325443, "lat": 61.2553522, "display_name": "Bergvik, Söderhamns kommun, Gävleborgs län, 820 26, Sverige", "name": "Bergvik"}, "Bergebo": {"type": "hamlet", "lon": 16.2559962, "lat": 57.7959727, "display_name": "Bergebo, Västerviks kommun, Kalmar län, Sverige", "name": "Bergebo"}, "Bergeforsen": {"type": "village", "lon": 17.3739827, "lat": 62.526318, "display_name": "Bergeforsen, Timrå distrikt, Timrå kommun, Västernorrlands län, 861 39, Sverige", "name": "Bergeforsen"}, "Bergen": {"type": "islet", "lon": 15.677156378033985, "lat": 59.2111037, "display_name": "Bergen, Örebro kommun, Örebro län, Sverige", "name": "Bergen"}, "Bergendal": {"type": "isolated_dwelling", "lon": 17.8302258, "lat": 59.6946028, "display_name": "Bergendal, Knivsta kommun, Uppsala län, 741 90, Sverige", "name": "Bergendal"}, "Bergens": {"type": "hamlet", "lon": 14.3664157, "lat": 56.3080461, "display_name": "Bergens, Osby kommun, Skåne län, Sverige", "name": "Bergens"}, "Bergfors": {"type": "hamlet", "lon": 14.866478, "lat": 56.3503073, "display_name": "Bergfors, Karlshamns kommun, Blekinge län, 374 92, Sverige", "name": "Bergfors"}, "Bergsgården": {"type": "hamlet", "lon": 13.4193257, "lat": 58.1799369, "display_name": "Bergsgården, Gökhems distrikt, Falköpings kommun, Västra Götalands län, Sverige", "name": "Bergsgården"}, "Berghem": {"type": "administrative", "lon": 20.30255583680793, "lat": 63.82751965, "display_name": "Berghem, Umeå, Umeå kommun, Västerbottens län, Sverige", "name": "Berghem"}, "Bergskanalen": {"type": "lake", "lon": 11.99118069559406, "lat": 57.6691285, "display_name": "Bergskanalen, Toltorp, Bosgården, Mölndal, Mölndals kommun, Västra Götalands län, Sverige", "name": "Bergskanalen"}, "Bergkvara": {"type": "village", "lon": 16.070362, "lat": 56.3907509, "display_name": "Bergkvara, Torsås kommun, Kalmar län, 385 40, Sverige", "name": "Bergkvara"}, "Bergsjö": {"type": "town", "lon": 17.0583699, "lat": 61.9837757, "display_name": "Bergsjö, Nordanstigs kommun, Gävleborgs län, 829 50, Sverige", "name": "Bergsjö"}, "Bergnäset": {"type": "peak", "lon": 18.1263466, "lat": 64.7308273, "display_name": "Bergnäset, Lycksele kommun, Västerbottens län, Sverige", "name": "Bergnäset"}, "Bergs": {"type": "administrative", "lon": 13.883333, "lat": 62.866667, "display_name": "Bergs kommun, Jämtlands län, Sverige", "name": "Bergs"}, "Bergshamra": {"type": "village", "lon": 18.6564963, "lat": 59.6395313, "display_name": "Bergshamra, Norrtälje kommun, Stockholms län, 760 10, Sverige", "name": "Bergshamra"}, "Bergslagen": {"type": "isolated_dwelling", "lon": 17.9489243, "lat": 60.0978842, "display_name": "Bergslagen, Östhammars kommun, Uppsala län, Sverige", "name": "Bergslagen"}, "Bergsåker": {"type": "administrative", "lon": 17.225194, "lat": 62.4148358, "display_name": "Bergsåker, Sundsvalls tätortsområde, Selångers distrikt, Sundsvalls kommun, Västernorrlands län, Sverige", "name": "Bergsåker"}, "Bergaby": {"type": "hamlet", "lon": 15.6731835, "lat": 59.4899752, "display_name": "Bergaby, Lindesbergs kommun, Örebro län, Sverige", "name": "Bergaby"}, "Berlin": {"type": "isolated_dwelling", "lon": 17.6185586, "lat": 59.3459014, "display_name": "Berlin, Ekerö kommun, Stockholms län, 179 97, Sverige", "name": "Berlin"}, "Berlins": {"type": "hamlet", "lon": 16.4548864, "lat": 62.4805345, "display_name": "Berlins, Ede(Viskan), Stöde kommundel, Sundsvalls kommun, Västernorrlands län, 841 77, Sverige", "name": "Berlins"}, "Berns": {"type": "isolated_dwelling", "lon": 16.9089823, "lat": 58.8091051, "display_name": "Berns, Nyköping, Nyköpings kommun, Södermanlands län, Sverige", "name": "Berns"}, "Bergsäng": {"type": "village", "lon": 13.5674421, "lat": 60.1118421, "display_name": "Bergsäng, Hagfors kommun, Värmlands län, 683 92, Sverige", "name": "Bergsäng"}, "Berzelii Park": {"type": "park", "lon": 18.07469400047556, "lat": 59.3322955, "display_name": "Berzelii park, Klara, Norrmalm, Norra innerstadens stadsdelsområde, Stockholm, Stockholms kommun, Stockholms län, Sverige", "name": "Berzelii Park"}, "Beten": {"type": "island", "lon": 17.147072116216954, "lat": 58.64512635, "display_name": "Beten, Oxelösund, Oxelösunds kommun, Södermanlands län, Sverige", "name": "Beten"}, "Bibliotek": {"type": "school", "lon": 17.994317408551574, "lat": 59.39476585, "display_name": "Bibliotek, Polisvägen, Järva, Solna kommun, Stockholms län, 191 38, Sverige", "name": "Bibliotek"}, "Biblioteket": {"type": "library", "lon": 12.973865321520773, "lat": 56.0559507, "display_name": "Biblioteket, Storgatan, Södra Vram, Billesholm, Bjuvs kommun, Skåne län, 267 73, Sverige", "name": "Biblioteket"}, "Biby": {"type": "farm", "lon": 16.3621985, "lat": 59.298363, "display_name": "Biby, Eskilstuna, Eskilstuna kommun, Södermanlands län, Sverige", "name": "Biby"}, "Byfjorden": {"type": "bay", "lon": 11.88730794697498, "lat": 58.33802415, "display_name": "Byfjorden, Uddevalla, Uddevalla kommun, Västra Götalands län, Sverige", "name": "Byfjorden"}, "Bålgård": {"type": "isolated_dwelling", "lon": 12.674961, "lat": 59.6540406, "display_name": "Bålgård, Arvika kommun, Värmlands län, 671 29, Sverige", "name": "Bålgård"}, "Billesholm": {"type": "village", "lon": 12.9714633, "lat": 56.0589004, "display_name": "Billesholm, Bjuvs kommun, Skåne län, 267 73, Sverige", "name": "Billesholm"}, "Billingen": {"type": "peak", "lon": 13.7756853, "lat": 58.4433517, "display_name": "Billingen, Skövde kommun, Västra Götalands län, Sverige", "name": "Billingen"}, "Billingsfors": {"type": "village", "lon": 12.2467712, "lat": 58.9833543, "display_name": "Billingsfors, Bengtsfors kommun, Västra Götalands län, 660 11, Sverige", "name": "Billingsfors"}, "Billsjö": {"type": "unclassified", "lon": 15.64480724421011, "lat": 59.94601905346389, "display_name": "Billsjö gård, Smedjebackens kommun, Dalarnas län, Sverige", "name": "Billsjö"}, "Bingsjö": {"type": "hamlet", "lon": 15.6489215, "lat": 61.023909, "display_name": "Bingsjö, Rättviks kommun, Dalarnas län, Sverige", "name": "Bingsjö"}, "Birka": {"type": "isolated_dwelling", "lon": 16.1688945, "lat": 57.8738885, "display_name": "Birka, Oggestad, Västerviks kommun, Kalmar län, Sverige", "name": "Birka"}, "Brinkagården": {"type": "farm", "lon": 13.0360431, "lat": 55.905339, "display_name": "Brinkagården, Tirup, Svalövs kommun, Skåne län, 268 73, Sverige", "name": "Brinkagården"}, "Biskop": {"type": "residential", "lon": 17.801174471179518, "lat": 59.47583224780356, "display_name": "Biskop Henriks väg, Stäket, Järfälla kommun, Stockholms län, 176 76, Sverige", "name": "Biskop"}, "Biskopsberg": {"type": "hamlet", "lon": 15.7222197, "lat": 56.2570273, "display_name": "Biskopsberg, Kättilsmåla, Karlskrona kommun, Blekinge län, 371 93, Sverige", "name": "Biskopsberg"}, "Biskopsgården": {"type": "suburb", "lon": 11.8890798, "lat": 57.7261672, "display_name": "Biskopsgården, Norra Biskopsgården, Hisingen, Göteborg, Göteborgs Stad, Västra Götalands län, 418 39, Sverige", "name": "Biskopsgården"}, "Biskopskulla": {"type": "hamlet", "lon": 17.1980216, "lat": 59.7313494, "display_name": "Biskopskulla, Enköpings kommun, Uppsala län, Sverige", "name": "Biskopskulla"}, "Bisen": {"type": "lake", "lon": 15.505871286061947, "lat": 59.9594187, "display_name": "Bisen, Smedjebackens kommun, Dalarnas län, Sverige", "name": "Bisen"}, "Bittinge": {"type": "hamlet", "lon": 15.5624493, "lat": 59.214483, "display_name": "Bittinge, Örebro kommun, Örebro län, Sverige", "name": "Bittinge"}, "Bjälbo Kyrka": {"type": "place_of_worship", "lon": 15.005237038649465, "lat": 58.372154550000005, "display_name": "Bjälbo kyrka, E 950, Bjälbo, Mjölby kommun, Östergötlands län, Sverige", "name": "Bjälbo Kyrka"}, "Bjurbäcken": {"type": "river", "lon": 18.26506746651052, "lat": 65.03718731893647, "display_name": "Bjurbäcken, Västerbottens län, Sverige", "name": "Bjurbäcken"}, "Bjurliden": {"type": "hamlet", "lon": 20.3781203, "lat": 64.8472553, "display_name": "Bjurliden, Skellefteå kommun, Västerbottens län, 936 31, Sverige", "name": "Bjurliden"}, "Bjursås": {"type": "village", "lon": 15.4511052, "lat": 60.7377645, "display_name": "Bjursås, Falu kommun, Dalarnas län, 790 21, Sverige", "name": "Bjursås"}, "Bjuråker": {"type": "village", "lon": 16.5639229, "lat": 61.861447, "display_name": "Bjuråker, Hudiksvalls kommun, Gävleborgs län, 824 74, Sverige", "name": "Bjuråker"}, "Bjärred": {"type": "town", "lon": 13.0216436, "lat": 55.7221863, "display_name": "Bjärred, Lomma kommun, Skåne län, 237 31, Sverige", "name": "Bjärred"}, "Björbo": {"type": "village", "lon": 14.7272515, "lat": 60.456683, "display_name": "Björbo, Gagnefs kommun, Dalarnas län, 786 97, Sverige", "name": "Björbo"}, "Björkaån": {"type": "river", "lon": 13.638450776896322, "lat": 55.659199635234955, "display_name": "Björkaån, Sjöbo, Sjöbo kommun, Skåne län, Sverige", "name": "Björkaån"}, "Björke Kyrka": {"type": "place_of_worship", "lon": 18.421306, "lat": 57.5074482, "display_name": "Björke kyrka, I 604, Björke, Roma kyrkby, Gotlands kommun, Gotlands län, 622 54, Sverige", "name": "Björke Kyrka"}, "Björköfjärden": {"type": "bay", "lon": 18.934883088564174, "lat": 59.889777249999995, "display_name": "Björköfjärden, Harö by, Norrtälje kommun, Stockholms län, Sverige", "name": "Björköfjärden"}, "Björkhagen": {"type": "suburb", "lon": 18.1179601, "lat": 59.2898889, "display_name": "Björkhagen, Skarpnäcks stadsdelsområde, Stockholm, Stockholms kommun, Stockholms län, 121 53, Sverige", "name": "Björkhagen"}, "Björkholmen": {"type": "island", "lon": 22.1348569, "lat": 65.9703491, "display_name": "Björkholmen, Luleå kommun, Norrbottens län, Sverige", "name": "Björkholmen"}, "Björkliden": {"type": "peak", "lon": 18.9181008, "lat": 64.8587066, "display_name": "Björkliden, Grans sameby, Lycksele kommun, Västerbottens län, Sverige", "name": "Björkliden"}, "Björklinge": {"type": "village", "lon": 17.551431, "lat": 60.0291369, "display_name": "Björklinge, Uppsala kommun, Uppsala län, 743 64, Sverige", "name": "Björklinge"}, "Björkö": {"type": "island", "lon": 11.68154848918337, "lat": 57.734563699999995, "display_name": "Björkö, Öckerö kommun, Västra Götalands län, 475 37, Sverige", "name": "Björkö"}, "Björknäs": {"type": "suburb", "lon": 18.2408113, "lat": 59.3208816, "display_name": "Björknäs, Boo, Nacka kommun, Stockholms län, 132 41, Sverige", "name": "Björknäs"}, "Björvallen": {"type": "stream", "lon": 13.539202716010037, "lat": 60.612085831130784, "display_name": "Björvallen, Malung-Sälens kommun, Dalarnas län, Sverige", "name": "Björvallen"}, "Björnberget": {"type": "peak", "lon": 13.317462, "lat": 60.8443625, "display_name": "Björnberget, Malung-Sälens kommun, Dalarnas län, Sverige", "name": "Björnberget"}, "Björnsund": {"type": "strait", "lon": 11.504407973068655, "lat": 58.20839215, "display_name": "Björnsund, Orust kommun, Västra Götalands län, Sverige", "name": "Björnsund"}, "Björneborg": {"type": "village", "lon": 14.2506109, "lat": 59.242214, "display_name": "Björneborg, Kristinehamns kommun, Värmlands län, Sverige", "name": "Björneborg"}, "Björns Trädgård": {"type": "park", "lon": 18.073851436684862, "lat": 59.3150456, "display_name": "Björns trädgård, Södermalm, Södermalms stadsdelsområde, Stockholm, Stockholms kommun, Stockholms län, Sverige", "name": "Björns Trädgård"}, "Björnastad": {"type": "hamlet", "lon": 13.9556446, "lat": 55.7605167, "display_name": "Björnastad, Tomelilla kommun, Skåne län, Sverige", "name": "Björnastad"}, "Blackeberg": {"type": "suburb", "lon": 17.8814886, "lat": 59.3459148, "display_name": "Blackeberg, Bromma stadsdelsområde, Stockholms kommun, Stockholms län, 168 45, Sverige", "name": "Blackeberg"}, "Bläsberget": {"type": "isolated_dwelling", "lon": 17.3955754, "lat": 60.2703242, "display_name": "Blåsberget, Onskarby, Tierps kommun, Uppsala län, Sverige", "name": "Bläsberget"}, "Blekinge": {"type": "administrative", "lon": 15.40230876550182, "lat": 56.12406045, "display_name": "Blekinge län, Sverige", "name": "Blekinge"}, "Blidö": {"type": "island", "lon": 18.90123663209917, "lat": 59.6145557, "display_name": "Blidö, Norrtälje kommun, Stockholms län, 760 17, Sverige", "name": "Blidö"}, "Blockhusudden": {"type": "neighbourhood", "lon": 18.1516428, "lat": 59.3214628, "display_name": "Blockhusudden, Djurgården, Norra innerstadens stadsdelsområde, Stockholm, Stockholms kommun, Stockholms län, 131 27, Sverige", "name": "Blockhusudden"}, "Blombacka": {"type": "village", "lon": 13.8007615, "lat": 59.608814, "display_name": "Blombacka, Karlstads kommun, Värmlands län, 655 98, Sverige", "name": "Blombacka"}, "Slottsparken": {"type": "park", "lon": 12.989032316759543, "lat": 55.601299, "display_name": "Slottsparken, Malmö Hus, Norr, Malmö, Malmö kommun, Skåne län, Sverige", "name": "Slottsparken"}, "Borlanda": {"type": "hamlet", "lon": 14.8485423, "lat": 57.0249127, "display_name": "Borlanda, Växjö kommun, Kronobergs län, 363 30, Sverige", "name": "Borlanda"}, "Blå": {"type": "islet", "lon": 16.792685904215496, "lat": 57.25203415, "display_name": "Blå Jungfrun, Oskarshamns kommun, Kalmar län, Sverige", "name": "Blå"}, "Blåberget": {"type": "peak", "lon": 11.2391306, "lat": 58.4401061, "display_name": "Blåberget, Sotenäs kommun, Västra Götalands län, 456 92, Sverige", "name": "Blåberget"}, "Blåhäll": {"type": "islet", "lon": 16.485726663966283, "lat": 56.99210345, "display_name": "Blåhäll, Mönsterås kommun, Kalmar län, Sverige", "name": "Blåhäll"}, "Blåkulla": {"type": "peak", "lon": 14.9286686, "lat": 65.8046503, "display_name": "Blåkulla, Storumans kommun, Västerbottens län, Sverige", "name": "Blåkulla"}, "Blåns": {"type": "isolated_dwelling", "lon": 16.2356643, "lat": 61.6725565, "display_name": "Blans, Ljusdals kommun, Gävleborgs län, Sverige", "name": "Blåns"}, "Bläckviken": {"type": "bay", "lon": 18.8543088, "lat": 63.274396, "display_name": "Bläckviken, Strömsön, Arnäs distrikt, Örnsköldsviks kommun, Västernorrlands län, Sverige", "name": "Bläckviken"}, "Västra Harg": {"type": "village", "lon": 15.2492305, "lat": 58.2632474, "display_name": "Västra Harg, Mjölby kommun, Östergötlands län, 595 91, Sverige", "name": "Västra Harg"}, "Bod": {"type": "locality", "lon": 14.0678431, "lat": 57.8511434, "display_name": "Bod, Klerebo, Jönköping, Jönköpings kommun, Jönköpings län, 564 91, Sverige", "name": "Bod"}, "Boda": {"type": "village", "lon": 18.6066771, "lat": 59.367778, "display_name": "Boda, Värmdö kommun, Stockholms län, 139 75, Sverige", "name": "Boda"}, "Bodacke": {"type": "hamlet", "lon": 16.7973466, "lat": 62.7204546, "display_name": "Bodacke, Lidens distrikt, Indals-Lidens kommundel, Sundsvalls kommun, Västernorrlands län, 855 99, Sverige", "name": "Bodacke"}, "Boden": {"type": "town", "lon": 21.6964105, "lat": 65.8275004, "display_name": "Boden, Bodens kommun, Norrbottens län, 961 61, Sverige", "name": "Boden"}, "Bodens": {"type": "administrative", "lon": 21.666667, "lat": 65.833333, "display_name": "Bodens kommun, Norrbottens län, Sverige", "name": "Bodens"}, "Bodön": {"type": "island", "lon": 21.772963490391128, "lat": 65.72221815, "display_name": "Bodön, Bodens kommun, Norrbottens län, 961 93, Sverige", "name": "Bodön"}, "Bodsjön": {"type": "lake", "lon": 14.95689422816637, "lat": 62.83611525, "display_name": "Bodsjön, Bräcke kommun, Jämtlands län, Sverige", "name": "Bodsjön"}, "Bodås": {"type": "hamlet", "lon": 16.4481439, "lat": 60.4260271, "display_name": "Bodås, Hofors kommun, Gävleborgs län, Sverige", "name": "Bodås"}, "Bogesund": {"type": "hamlet", "lon": 18.2787017, "lat": 59.3926715, "display_name": "Bogesund, Vaxholms kommun, Stockholms län, 185 37, Sverige", "name": "Bogesund"}, "Borgan": {"type": "river", "lon": 15.732356422783958, "lat": 63.362135022011664, "display_name": "Borgan, Ragunda kommun, Jämtlands län, Sverige", "name": "Borgan"}, "Bohus": {"type": "village", "lon": 12.0184224, "lat": 57.8516173, "display_name": "Bohus, Ale kommun, Västra Götalands län, 445 33, Sverige", "name": "Bohus"}, "Bohus-Björkö": {"type": "island", "lon": 11.68154848918337, "lat": 57.734563699999995, "display_name": "Björkö, Öckerö kommun, Västra Götalands län, 475 37, Sverige", "name": "Bohus-Björkö"}, "Bohuslän": {"type": "historic", "importance": 0.06667666666666666, "lon": "11.441026097756726", "place_rank": 25, "lat": "58.3810286", "boundingbox": ["57.6474389", "59.1149793", "10.5935025", "12.2284913"], "display_name": "Bohuslän, Sverige", "addresstype": "historic", "name": "Bohuslän"}, "Böksholm": {"type": "farm", "lon": 15.0107738, "lat": 57.0845611, "display_name": "Böksholm, Växjö kommun, Kronobergs län, 363 41, Sverige", "name": "Böksholm"}, "Boliden": {"type": "village", "lon": 20.3835784, "lat": 64.8671772, "display_name": "Boliden, Skellefteå kommun, Västerbottens län, 936 31, Sverige", "name": "Boliden"}, "Bolivia": {"type": "country", "lon": -64.96332405195402, "lat": -16.595028464494217, "display_name": "Bolivia", "name": "Bolivia"}, "Bollebo": {"type": "hamlet", "lon": 15.5930232, "lat": 58.2702033, "display_name": "Bollebo, Vårdnäs, Linköpings kommun, Östergötlands län, 585 96, Sverige", "name": "Bollebo"}, "Bolleberget": {"type": "peak", "lon": 16.3127063, "lat": 61.367196, "display_name": "Stor Bolleberget, Bollnäs kommun, Gävleborgs län, 821 93, Sverige", "name": "Bolleberget"}, "Bollnäs": {"type": "town", "lon": 16.3972013, "lat": 61.3513005, "display_name": "Bollnäs, Bollnäs kommun, Gävleborgs län, 821 43, Sverige", "name": "Bollnäs"}, "Bollnäs Kyrka": {"type": "place_of_worship", "lon": 16.38969111505204, "lat": 61.34571065, "display_name": "Bollnäs kyrka, Järnvägsgatan, Bollnäs, Bollnäs kommun, Gävleborgs län, 821 42, Sverige", "name": "Bollnäs Kyrka"}, "Bologna": {"type": "city_block", "lon": 18.0346711, "lat": 59.3485049, "display_name": "Bologna, Hagastaden, Vasastaden, Norra innerstadens stadsdelsområde, Stockholm, Stockholms kommun, Stockholms län, 113 66, Sverige", "name": "Bologna"}, "Borlänge": {"type": "town", "lon": 15.4234561, "lat": 60.4856426, "display_name": "Borlänge, Borlänge kommun, Dalarnas län, 784 31, Sverige", "name": "Borlänge"}, "Bombay": {"type": "restaurant", "lon": 11.848449, "lat": 57.719172, "display_name": "Bombay, Sörredsplatsen, Arendal, Hisingen, Göteborg, Göteborgs Stad, Västra Götalands län, 418 78, Sverige", "name": "Bombay"}, "Bondön": {"type": "island", "lon": 21.704667531800638, "lat": 65.2129859, "display_name": "Bondön, Piteå kommun, Norrbottens län, Sverige", "name": "Bondön"}, "Bonn": {"type": "track", "lon": 15.529938179383729, "lat": 62.405232703957694, "display_name": "Bonnvägen, Haverö distrikt, Ånge kommun, Västernorrlands län, Sverige", "name": "Bonn"}, "Borensberg": {"type": "village", "lon": 15.2802181, "lat": 58.5656587, "display_name": "Borensberg, Motala kommun, Östergötlands län, 590 31, Sverige", "name": "Borensberg"}, "Borg": {"type": "hamlet", "lon": 12.6074267, "lat": 58.144957, "display_name": "Borg, Stora Mellby distrikt, Alingsås kommun, Västra Götalands län, Sverige", "name": "Borg"}, "Borgafjäll": {"type": "village", "lon": 15.0891242, "lat": 64.8377292, "display_name": "Borgafjäll, Dorotea kommun, Västerbottens län, 917 04, Sverige", "name": "Borgafjäll"}, "Borgahällen": {"type": "sports_centre", "lon": 13.456919434122415, "lat": 58.3861897, "display_name": "Borgahallen, Vallgatan, Vilans fritidsområde, Skara domkyrkodistrikt, Skara, Skara kommun, Västra Götalands län, 532 37, Sverige", "name": "Borgahällen"}, "Berganäs": {"type": "residential", "lon": 15.845622254865395, "lat": 58.714008398089916, "display_name": "Berganäsvägen, Stjärnvik, Näs, Finspångs kommun, Östergötlands län, 612 92, Sverige", "name": "Berganäs"}, "Borgasjön": {"type": "lake", "lon": 14.972519187132399, "lat": 64.84474395000001, "display_name": "Borgasjön, Strömsunds kommun, Jämtlands län, Sverige", "name": "Borgasjön"}, "Borgfors": {"type": "hamlet", "lon": 21.1600404, "lat": 65.5123184, "display_name": "Borgfors, Piteå kommun, Norrbottens län, 942 94, Sverige", "name": "Borgfors"}, "Borgen": {"type": "islet", "lon": 18.477396003744893, "lat": 58.9684167, "display_name": "Borgen, Haninge kommun, Stockholms län, Sverige", "name": "Borgen"}, "Borgholm": {"type": "town", "lon": 16.6559707, "lat": 56.8794759, "display_name": "Borgholm, Borgholms kommun, Kalmar län, 387 31, Sverige", "name": "Borgholm"}, "Borgholm Hamn": {"type": "hamlet", "lon": 16.9907051, "lat": 57.1101993, "display_name": "Källa hamn, Borgholms kommun, Kalmar län, 387 73, Sverige", "name": "Borgholm Hamn"}, "Borgholms Slottsruin": {"type": "ruins", "lon": 16.644676156457493, "lat": 56.87071805, "display_name": "Borgholms slottsruin, Bergdalavägen, Borgholm, Borgholms kommun, Kalmar län, 387 94, Sverige", "name": "Borgholms Slottsruin"}, "Borgmästaren": {"type": "islet", "lon": 12.346491262449563, "lat": 58.385692899999995, "display_name": "Borgmästaren, Lyckhem - Huvudnäs, Vänersborg, Vänersborgs kommun, Västra Götalands län, Sverige", "name": "Borgmästaren"}, "Borgö": {"type": "islet", "lon": 16.69914344101189, "lat": 57.72752945, "display_name": "Borgö, Pepparängen, Västerviks kommun, Kalmar län, Sverige", "name": "Borgö"}, "Borgsjö": {"type": "administrative", "lon": 15.701045757141312, "lat": 62.5000256, "display_name": "Borgsjö distrikt, Ånge kommun, Västernorrlands län, Sverige", "name": "Borgsjö"}, "Borgvattnet": {"type": "lake", "lon": 16.244689788275377, "lat": 63.98256225, "display_name": "Borgvattnet, Bodums distrikt, Strömsunds kommun, Jämtlands län, Sverige", "name": "Borgvattnet"}, "Borga": {"type": "hamlet", "lon": 13.155887, "lat": 58.224384, "display_name": "Borga, Edsvära distrikt, Vara kommun, Västra Götalands län, 534 62, Sverige", "name": "Borga"}, "Bogården": {"type": "hamlet", "lon": 16.4567972, "lat": 61.5692906, "display_name": "Bogården, Bollnäs kommun, Gävleborgs län, Sverige", "name": "Bogården"}, "Björnebo": {"type": "isolated_dwelling", "lon": 16.0837869, "lat": 58.4212513, "display_name": "Björnebo, Söderköpings kommun, Östergötlands län, Sverige", "name": "Björnebo"}, "Bornholm": {"type": "grassland", "lon": 13.239001303015531, "lat": 56.0106043, "display_name": "Bornholm, Svalövs kommun, Skåne län, Sverige", "name": "Bornholm"}, "Borenshult": {"type": "residential", "lon": 15.080104784569695, "lat": 58.55891535, "display_name": "Borenshult, Motala, Motala kommun, Östergötlands län, Sverige", "name": "Borenshult"}, "Björsberg": {"type": "hamlet", "lon": 15.4654749, "lat": 60.7800611, "display_name": "Björsberg, Falu kommun, Dalarnas län, 790 21, Sverige", "name": "Björsberg"}, "Borasjön": {"type": "lake", "lon": 14.558807205088812, "lat": 58.95419845, "display_name": "Borasjön, Ramundeboda distrikt, Laxå kommun, Örebro län, Sverige", "name": "Borasjön"}, "Borsökna": {"type": "suburb", "lon": 16.4360221, "lat": 59.3370468, "display_name": "Borsökna, Eskilstuna, Eskilstuna kommun, Södermanlands län, 632 33, Sverige", "name": "Borsökna"}, "Börsta": {"type": "hamlet", "lon": 17.2744666, "lat": 59.5007799, "display_name": "Börsta, Enköpings kommun, Uppsala län, Sverige", "name": "Börsta"}, "Borstahusen": {"type": "suburb", "lon": 12.8079665, "lat": 55.8955379, "display_name": "Borstahusen, Landskrona kommun, Skåne län, 261 61, Sverige", "name": "Borstahusen"}, "Borås": {"type": "city", "lon": 12.9407407, "lat": 57.7210839, "display_name": "Borås, Borås kommun, Västra Götalands län, 503 31, Sverige", "name": "Borås"}, "Bosnien": {"type": "diplomatic", "lon": 18.0666559, "lat": 59.339994, "display_name": "Bosnien och Hercegovinas ambassad, Birger Jarlsgatan, Norrmalm, Norra innerstadens stadsdelsområde, Stockholm, Stockholms kommun, Stockholms län, 114 29, Sverige", "name": "Bosnien"}, "Börstad": {"type": "hamlet", "lon": 14.9599977, "lat": 58.43152, "display_name": "Börstad, Orlunda, Vadstena kommun, Östergötlands län, 592 94, Sverige", "name": "Börstad"}, "Boston": {"type": "isolated_dwelling", "lon": 20.3562947, "lat": 64.2571428, "display_name": "Boston, Grans sameby, Umeå kommun, Västerbottens län, Sverige", "name": "Boston"}, "Bosön": {"type": "hamlet", "lon": 18.1712367, "lat": 59.3792169, "display_name": "Bosön, Västra Yttringe, Lidingö kommun, Stockholms län, 181 46, Sverige", "name": "Bosön"}, "Bötån": {"type": "country", "lon": 90.43868902722889, "lat": 27.389259768771854, "display_name": "འབྲུག་ཡུལ་", "name": "Bötån"}, "Botkyrka": {"type": "administrative", "lon": 17.8545982, "lat": 59.2034494, "display_name": "Botkyrka kommun, Stockholms län, Sverige", "name": "Botkyrka"}, "Bottniska Viken": {"type": "bay", "lon": 19.8946084972872, "lat": 63.0082381, "display_name": "Pohjanlahti - Bottniska viken, 952 95", "name": "Bottniska Viken"}, "Bottnaryds kyrka": {"type": "place_of_worship", "lon": 13.822878061480186, "lat": 57.7741732, "display_name": "Bottnaryds kyrka, Kyrkvägen, Bottnaryd, Jönköpings kommun, Jönköpings län, 565 76, Sverige", "name": "Bottnaryds kyrka"}, "Boulevard": {"type": "dry_cleaning", "lon": 18.0130953, "lat": 59.3750227, "display_name": "Boulevard, 113, Gustav III:s boulevard, Arenastaden, Ritorp, Solna, Solna kommun, Stockholms län, 169 74, Sverige", "name": "Boulevard"}, "Bokelund": {"type": "hamlet", "lon": 14.85803, "lat": 56.3884414, "display_name": "Bokelund, Tingsryds kommun, Kronobergs län, Sverige", "name": "Bokelund"}, "Bäcken": {"type": "hamlet", "lon": 12.5115761, "lat": 59.2131716, "display_name": "Bäcken, Säffle kommun, Värmlands län, 662 50, Sverige", "name": "Bäcken"}, "Brahekyrkan": {"type": "place_of_worship", "lon": 14.343294696536411, "lat": 58.034978100000004, "display_name": "Brahekyrkan, Hagavägen, Tunnerstad, Jönköpings kommun, Jönköpings län, 560 34, Sverige", "name": "Brahekyrkan"}, "Bråten": {"type": "suburb", "lon": 14.5742149, "lat": 59.3517279, "display_name": "Bråten, Karlskoga kommun, Örebro län, 691 54, Sverige", "name": "Bråten"}, "Brahehus": {"type": "services", "lon": 14.508440548135134, "lat": 58.052183400000004, "display_name": "Brahehus, E 4, Mällby, Norra Boarp, Gränna, Jönköpings kommun, Jönköpings län, 563 31, Sverige", "name": "Brahehus"}, "Bramstorp": {"type": "hamlet", "lon": 14.8793989, "lat": 56.8236826, "display_name": "Bramstorp, Växjö, Växjö kommun, Kronobergs län, 355 98, Sverige", "name": "Bramstorp"}, "Brandstorp": {"type": "village", "lon": 14.1861245, "lat": 58.1012068, "display_name": "Brandstorp, Habo kommun, Jönköpings län, Sverige", "name": "Brandstorp"}, "Brännestaden": {"type": "isolated_dwelling", "lon": 13.3061515, "lat": 56.3989434, "display_name": "Brännestaden, Bjärnared, Laholms kommun, Hallands län, Sverige", "name": "Brännestaden"}, "Brattbacken": {"type": "isolated_dwelling", "lon": 13.4848621, "lat": 59.9997825, "display_name": "Brattbacken, Lakenestorp, Hagfors kommun, Värmlands län, 683 94, Sverige", "name": "Brattbacken"}, "Brasilien": {"type": "country", "lon": -54.519785530608715, "lat": -13.52234948217256, "display_name": "Brasil", "name": "Brasilien"}, "Brasiliens": {"type": "diplomatic", "lon": 18.0473911, "lat": 59.3315769, "display_name": "Brasiliens ambassad, Kungsgatan, Kungsholmen, Kungsholmens stadsdelsområde, Stockholm, Stockholms kommun, Stockholms län, 112 27, Sverige", "name": "Brasiliens"}, "Brastad": {"type": "village", "lon": 11.4851818, "lat": 58.3820066, "display_name": "Brastad, Lysekils kommun, Västra Götalands län, 454 31, Sverige", "name": "Brastad"}, "Brattfors": {"type": "village", "lon": 19.6231759, "lat": 63.6411461, "display_name": "Brattfors, Nordmalings distrikt, Nordmalings kommun, Västerbottens län, Sverige", "name": "Brattfors"}, "Brattforshyttan": {"type": "hamlet", "lon": 14.0657141, "lat": 59.6070739, "display_name": "Brattforshyttan, Filipstads kommun, Värmlands län, Sverige", "name": "Brattforshyttan"}, "Brattås": {"type": "peak", "lon": 11.4334844, "lat": 58.3862267, "display_name": "Brattås, Lysekils kommun, Västra Götalands län, 454 93, Sverige", "name": "Brattås"}, "Bråbo": {"type": "hamlet", "lon": 16.1612923, "lat": 57.3408805, "display_name": "Stora Bråbo, Saxtorp, Oskarshamns kommun, Kalmar län, Sverige", "name": "Bråbo"}, "Bre": {"type": "technical_station", "lon": 17.6352284, "lat": 59.140578, "display_name": "Bränninge, Kvedestavägen, Kvedesta, Pershagen, Södertälje kommun, Stockholms län, 151 39, Sverige", "name": "Bre"}, "Bredan": {"type": "river", "lon": 16.610295275680908, "lat": 60.55654022176162, "display_name": "Bredån, Sandvikens kommun, Gävleborgs län, 812 92, Sverige", "name": "Bredan"}, "Bremen": {"type": "city_block", "lon": 18.1013511, "lat": 59.3497333, "display_name": "Bremen, Gärdeshöjden, Ladugårdsgärdet, Norra innerstadens stadsdelsområde, Stockholm, Stockholms kommun, Stockholms län, 115 40, Sverige", "name": "Bremen"}, "Bridge": {"type": "bare_rock", "lon": 18.945689113385626, "lat": 57.9188534, "display_name": "Gustav Setu Pebble bridge, Ar, Gotlands kommun, Gotlands län, Sverige", "name": "Bridge"}, "Bristol": {"type": "isolated_dwelling", "lon": 15.2460407, "lat": 58.624955, "display_name": "Bristol, Motala kommun, Östergötlands län, Sverige", "name": "Bristol"}, "Brånö": {"type": "islet", "lon": 16.75932824177211, "lat": 57.529882650000005, "display_name": "Brånö, Oskarshamns kommun, Kalmar län, Sverige", "name": "Brånö"}, "Bro": {"type": "town", "lon": 17.6426027, "lat": 59.514658, "display_name": "Bro, Upplands-Bro kommun, Stockholms län, 197 31, Sverige", "name": "Bro"}, "Bröd": {"type": "locality", "lon": 14.0004005, "lat": 55.9680181, "display_name": "Bröd, Kristianstads kommun, Skåne län, 298 34, Sverige", "name": "Bröd"}, "Broadway": {"type": "clothes", "lon": 18.059959, "lat": 59.3186893, "display_name": "Broadway & Sons, Hornsgatan, Södermalm, Södermalms stadsdelsområde, Stockholm, Stockholms kommun, Stockholms län, 118 49, Sverige", "name": "Broadway"}, "Brånan": {"type": "peak", "lon": 18.8823851, "lat": 64.7869595, "display_name": "Brånan, Lycksele kommun, Västerbottens län, Sverige", "name": "Brånan"}, "Bröckling": {"type": "hamlet", "lon": 15.5363105, "lat": 62.7263955, "display_name": "Bröckling, Bräcke kommun, Jämtlands län, Sverige", "name": "Bröckling"}, "Bofors": {"type": "hamlet", "lon": 16.3345076, "lat": 63.7042828, "display_name": "Bofors, Fjällsjö distrikt, Strömsunds kommun, Jämtlands län, Sverige", "name": "Bofors"}, "Brom": {"type": "residential", "lon": 15.607401174395964, "lat": 56.265151887230665, "display_name": "Bromvägen, Mo, Johannesberg, Rödeby, Karlskrona kommun, Blekinge län, 374 42, Sverige", "name": "Brom"}, "Bromma": {"type": "administrative", "lon": 17.933114561222684, "lat": 59.3400654, "display_name": "Bromma stadsdelsområde, Stockholms kommun, Stockholms län, Sverige", "name": "Bromma"}, "Bromma Kyrka": {"type": "administrative", "lon": 17.9148891, "lat": 59.3545509, "display_name": "Bromma kyrka, Bromma stadsdelsområde, Stockholms kommun, Stockholms län, Sverige", "name": "Bromma Kyrka"}, "Brommö": {"type": "island", "lon": 13.683323493723108, "lat": 58.83036535, "display_name": "Brommö, Mariestads kommun, Västra Götalands län, Sverige", "name": "Brommö"}, "Bolmstad": {"type": "hamlet", "lon": 13.7744031, "lat": 56.8900056, "display_name": "Bolmstad, Ljungby kommun, Kronobergs län, 341 94, Sverige", "name": "Bolmstad"}, "Bromölla": {"type": "town", "lon": 14.4681732, "lat": 56.076158, "display_name": "Bromölla, Bromölla kommun, Skåne län, 295 21, Sverige", "name": "Bromölla"}, "Brooklyn": {"type": "fast_food", "lon": 14.151586312092395, "lat": 57.771928450000004, "display_name": "Brooklyn Burger Express, 2, Torpaplan, Torpa, Jönköping, Jönköpings kommun, Jönköpings län, 553 33, Sverige", "name": "Brooklyn"}, "Burösundet": {"type": "strait", "lon": 18.8620127, "lat": 63.2601049, "display_name": "Burösundet, Hornön, Arnäs distrikt, Örnsköldsviks kommun, Västernorrlands län, Sverige", "name": "Burösundet"}, "Brottö": {"type": "hamlet", "lon": 18.7216755, "lat": 59.4683968, "display_name": "Brottö, Österåkers kommun, Stockholms län, 130 25, Sverige", "name": "Brottö"}, "Bruk": {"type": "village", "lon": 15.5805282, "lat": 59.0132317, "display_name": "Brevens bruk, Örebro kommun, Örebro län, 715 96, Sverige", "name": "Bruk"}, "Brun": {"type": "residential", "lon": 16.307064897904255, "lat": 56.7262212, "display_name": "Tant Brun, Lindsdal, Kalmar kommun, Kalmar län, Sverige", "name": "Brun"}, "Brunefall": {"type": "isolated_dwelling", "lon": 15.1345496, "lat": 57.6587245, "display_name": "Brunefall, Eksjö kommun, Jönköpings län, 575 92, Sverige", "name": "Brunefall"}, "Broungs": {"type": "isolated_dwelling", "lon": 18.550576, "lat": 57.7984642, "display_name": "Broungs, Gotlands kommun, Gotlands län, Sverige", "name": "Broungs"}, "Brunkeberg": {"type": "hamlet", "lon": 17.8247966, "lat": 58.8770113, "display_name": "Brunkeberg, Nynäshamns kommun, Stockholms län, Sverige", "name": "Brunkeberg"}, "Brunn": {"type": "village", "lon": 18.4264952, "lat": 59.2819195, "display_name": "Brunn, Värmdö kommun, Stockholms län, 134 60, Sverige", "name": "Brunn"}, "Brunnsviken": {"type": "lake", "lon": 18.043605782722256, "lat": 59.3656574, "display_name": "Brunnsviken, Norra innerstadens stadsdelsområde, Stockholm, Stockholms kommun, Stockholms län, Sverige", "name": "Brunnsviken"}, "Brunsvik": {"type": "hamlet", "lon": 15.9884816, "lat": 57.4768186, "display_name": "Brunsvik, Hultsfreds kommun, Kalmar län, Sverige", "name": "Brunsvik"}, "Bryssel": {"type": "parking", "lon": 18.713619551809643, "lat": 63.29019915000001, "display_name": "Bryssel, Fabriksgatan, Valhalla, Örnsköldsviks distrikt, Örnsköldsviks kommun, Västernorrlands län, 891 34, Sverige", "name": "Bryssel"}, "Bussen": {"type": "industrial", "lon": 19.491649808017804, "lat": 63.5688695, "display_name": "Bussen, Nordmaling, Nordmalings distrikt, Nordmalings kommun, Västerbottens län, Sverige", "name": "Bussen"}, "Brygg": {"type": "residential", "lon": 13.721270350000001, "lat": 55.6292319, "display_name": "Bryggatan, Tofta, Sjöbo, Sjöbo kommun, Skåne län, 275 34, Sverige", "name": "Brygg"}, "Bräcke": {"type": "town", "lon": 15.4198705, "lat": 62.7521274, "display_name": "Bräcke, Bräcke kommun, Jämtlands län, 840 60, Sverige", "name": "Bräcke"}, "Brände": {"type": "peak", "lon": 15.7060978, "lat": 58.8814046, "display_name": "Brände mon, Regna, Finspångs kommun, Östergötlands län, Sverige", "name": "Brände"}, "Brändö": {"type": "island", "lon": 18.932798235299778, "lat": 59.3530538, "display_name": "Brändö, Värmdö kommun, Stockholms län, Sverige", "name": "Brändö"}, "Branten": {"type": "peak", "lon": 16.6032873, "lat": 58.5100522, "display_name": "Branten, Norrköpings kommun, Östergötlands län, Sverige", "name": "Branten"}, "Brännan": {"type": "peak", "lon": 17.3544505, "lat": 63.5106213, "display_name": "Brännan, Anundsjö distrikt, Örnsköldsviks kommun, Västernorrlands län, Sverige", "name": "Brännan"}, "Brännkyrka": {"type": "residential", "lon": 18.059855586945417, "lat": 59.31916188345676, "display_name": "Brännkyrkagatan, Zinkensdamm, Södermalm, Södermalms stadsdelsområde, Stockholm, Stockholms kommun, Stockholms län, 118 49, Sverige", "name": "Brännkyrka"}, "Brännö": {"type": "island", "lon": 11.771808953830881, "lat": 57.64378365, "display_name": "Brännö, Sydväst, Brännö, Göteborgs Stad, Västra Götalands län, 430 85, Sverige", "name": "Brännö"}, "Brå": {"type": "lake", "lon": 16.260586887687403, "lat": 57.3238846, "display_name": "Stor-Brå, Oskarshamns kommun, Kalmar län, Sverige", "name": "Brå"}, "Bråfors": {"type": "hamlet", "lon": 15.7303434, "lat": 60.0403605, "display_name": "Bråfors, Norbergs kommun, Västmanlands län, Sverige", "name": "Bråfors"}, "Bråviken": {"type": "bay", "lon": 16.53585042182604, "lat": 58.63613105, "display_name": "Bråviken, Östergötlands län, Sverige", "name": "Bråviken"}, "Brösta": {"type": "suburb", "lon": 18.7689, "lat": 63.3134371, "display_name": "Brösta, Arnäsvall, Arnäs distrikt, Örnsköldsviks kommun, Västernorrlands län, 891 55, Sverige", "name": "Brösta"}, "Brösarp": {"type": "village", "lon": 14.1049163, "lat": 55.7260391, "display_name": "Brösarp, Tomelilla kommun, Skåne län, 273 50, Sverige", "name": "Brösarp"}, "Buda": {"type": "hamlet", "lon": 13.5015318, "lat": 60.1017997, "display_name": "Buda, Hagfors kommun, Värmlands län, 683 61, Sverige", "name": "Buda"}, "Buenos": {"type": "restaurant", "lon": 11.9501471, "lat": 57.692714, "display_name": "Buenos Aires, 21A, Nordenskiöldsgatan, Kommendantsängen, Olivedal, Centrum, Göteborg, Göteborgs Stad, Västra Götalands län, 413 09, Sverige", "name": "Buenos"}, "Buenos Aires": {"type": "restaurant", "lon": 11.9501471, "lat": 57.692714, "display_name": "Buenos Aires, 21A, Nordenskiöldsgatan, Kommendantsängen, Olivedal, Centrum, Göteborg, Göteborgs Stad, Västra Götalands län, 413 09, Sverige", "name": "Buenos Aires"}, "Bugö": {"type": "islet", "lon": 18.761909836036168, "lat": 59.402373, "display_name": "Bugö, Värmdö kommun, Stockholms län, Sverige", "name": "Bugö"}, "Bulgarien": {"type": "country", "lon": 25.334238276671304, "lat": 42.7382370358673, "display_name": "Бългaрия", "name": "Bulgarien"}, "Bulltofta": {"type": "administrative", "lon": 13.059857432869386, "lat": 55.6051948, "display_name": "Bulltofta, Norr, Malmö, Malmö kommun, Skåne län, 212 39, Sverige", "name": "Bulltofta"}, "Bur": {"type": "isolated_dwelling", "lon": 12.1314134, "lat": 57.8043389, "display_name": "Bur, Högen, Bergum, Nordost, Göteborgs Stad, Västra Götalands län, 424 72, Sverige", "name": "Bur"}, "Burma": {"type": "country", "lon": 97.06970437347246, "lat": 20.301161585372526, "display_name": "မြန်မာ", "name": "Burma"}, "Burås": {"type": "peak", "lon": 16.6912464, "lat": 61.6777647, "display_name": "Burås, Hudiksvalls kommun, Gävleborgs län, Sverige", "name": "Burås"}, "Bjusan": {"type": "lake", "lon": 15.31900935665001, "lat": 60.4873817, "display_name": "Bjusan, Borlänge kommun, Dalarnas län, Sverige", "name": "Bjusan"}, "Buterud": {"type": "hamlet", "lon": 12.3987174, "lat": 58.8517904, "display_name": "Buterud, Bengtsfors kommun, Västra Götalands län, 464 72, Sverige", "name": "Buterud"}, "Bybacka": {"type": "hamlet", "lon": 13.5553229, "lat": 58.5380412, "display_name": "Bybacka, Holmestads distrikt, Götene kommun, Västra Götalands län, 533 91, Sverige", "name": "Bybacka"}, "Lycke Kyrka": {"type": "place_of_worship", "lon": 11.720811184998619, "lat": 57.8754558, "display_name": "Lycke kyrka, O 607, Lycke, Kungälvs kommun, Västra Götalands län, 442 75, Sverige", "name": "Lycke Kyrka"}, "Bron": {"type": "isolated_dwelling", "lon": 15.6040964, "lat": 58.761138, "display_name": "Bron, Stigstorp, Finspångs kommun, Östergötlands län, Sverige", "name": "Bron"}, "Bysjön": {"type": "lake", "lon": 15.725464305124877, "lat": 57.36164575, "display_name": "Bysjön, Hultsfreds kommun, Kalmar län, Sverige", "name": "Bysjön"}, "Bäckaskog": {"type": "village", "lon": 14.3342604, "lat": 56.0442996, "display_name": "Bäckaskog, Kristianstads kommun, Skåne län, 290 34, Sverige", "name": "Bäckaskog"}, "Bäckefors": {"type": "village", "lon": 12.1599693, "lat": 58.8061271, "display_name": "Bäckefors, Bengtsfors kommun, Västra Götalands län, 668 88, Sverige", "name": "Bäckefors"}, "Backer": {"type": "hamlet", "lon": 11.9726269, "lat": 57.8476054, "display_name": "Backer, Rödbo, Hisingen, Göteborgs Stad, Västra Götalands län, 442 90, Sverige", "name": "Backer"}, "Bäckerholmen": {"type": "islet", "lon": 17.109286795740253, "lat": 64.96215434999999, "display_name": "Bäckerholmen, Skarvsjöby, Storumans kommun, Västerbottens län, Sverige", "name": "Bäckerholmen"}, "Bäckänget": {"type": "hamlet", "lon": 15.8147012, "lat": 60.6652194, "display_name": "Bäckänget, Falun, Falu kommun, Dalarnas län, Sverige", "name": "Bäckänget"}, "Beckomberga": {"type": "suburb", "lon": 17.8941046, "lat": 59.3573386, "display_name": "Beckomberga, Bromma stadsdelsområde, Stockholm, Stockholms kommun, Stockholms län, 168 62, Sverige", "name": "Beckomberga"}, "Bäckviken": {"type": "hamlet", "lon": 12.7204518, "lat": 55.9031549, "display_name": "Bäckviken, Landskrona kommun, Skåne län, 260 13, Sverige", "name": "Bäckviken"}, "Bålsön": {"type": "island", "lon": 17.534538671835648, "lat": 61.7232157, "display_name": "Bålsön, Hudiksvalls kommun, Gävleborgs län, Sverige", "name": "Bålsön"}, "Boalt": {"type": "hamlet", "lon": 13.5234924, "lat": 56.3368942, "display_name": "Boalt, Hässleholms kommun, Skåne län, Sverige", "name": "Boalt"}, "Bålen": {"type": "lake", "lon": 14.106054686728292, "lat": 59.64601585, "display_name": "Bålen, Filipstads kommun, Värmlands län, Sverige", "name": "Bålen"}, "Barsbro": {"type": "hamlet", "lon": 14.8648231, "lat": 57.0633165, "display_name": "Barsbro, Växjö kommun, Kronobergs län, 363 31, Sverige", "name": "Barsbro"}, "Bäsinge": {"type": "hamlet", "lon": 16.3645232, "lat": 60.1316432, "display_name": "Bäsinge, Avesta kommun, Dalarnas län, Sverige", "name": "Bäsinge"}, "Bäveån": {"type": "river", "lon": 12.0070512, "lat": 58.3528767, "display_name": "Bäveån, Västra Götalands län, Sverige", "name": "Bäveån"}, "Bågen": {"type": "lake", "lon": 16.06810857534424, "lat": 60.046013200000004, "display_name": "Bågen, Norbergs kommun, Västmanlands län, Sverige", "name": "Bågen"}, "Bålsö": {"type": "residential", "lon": 17.143655652305124, "lat": 61.72642433262879, "display_name": "Bålsövägen, Björkberg, Hudiksvall, Hudiksvalls kommun, Gävleborgs län, 824 54, Sverige", "name": "Bålsö"}, "Vålådalen": {"type": "hamlet", "lon": 12.9667787, "lat": 63.1485611, "display_name": "Vålådalen, Åre kommun, Jämtlands län, 837 75, Sverige", "name": "Vålådalen"}, "Bärsö": {"type": "islet", "lon": 18.720214633015516, "lat": 59.65936445, "display_name": "Bärsö, Näskaräng, Grovstanäs, Norrtälje kommun, Stockholms län, Sverige", "name": "Bärsö"}, "Båstad": {"type": "town", "lon": 12.8608789, "lat": 56.4268963, "display_name": "Båstad, Båstads kommun, Skåne län, 269 36, Sverige", "name": "Båstad"}, "Bön": {"type": "hamlet", "lon": 11.6688948, "lat": 58.3747244, "display_name": "Bön, Uddevalla kommun, Västra Götalands län, 451 95, Sverige", "name": "Bön"}, "Bönan": {"type": "village", "lon": 17.3032168, "lat": 60.7361314, "display_name": "Bönan, Gävle kommun, Gävleborgs län, 805 95, Sverige", "name": "Bönan"}, "Bönhamn": {"type": "village", "lon": 18.4482359, "lat": 62.8789494, "display_name": "Bönhamn, Nordingrå distrikt, Kramfors kommun, Västernorrlands län, Sverige", "name": "Bönhamn"}, "Horsvik": {"type": "bay", "lon": 16.8402368, "lat": 58.1839578, "display_name": "Horsvik, Fyrtorp, Valdemarsviks kommun, Östergötlands län, 615 96, Sverige", "name": "Horsvik"}, "Kalmar": {"type": "city", "lon": 16.3662382, "lat": 56.6628826, "display_name": "Kalmar, Kalmar kommun, Kalmar län, 392 31, Sverige", "name": "Kalmar"}, "Cambridge": {"type": "city_block", "lon": 18.0389617, "lat": 59.3499786, "display_name": "Cambridge, Hagastaden, Vasastaden, Norra innerstadens stadsdelsområde, Stockholm, Stockholms kommun, Stockholms län, 113 43, Sverige", "name": "Cambridge"}, "Camp": {"type": "commercial", "lon": 13.226236052933833, "lat": 61.4131649, "display_name": "Offroad Adventure Camp Sweden, 15, Älvdalens kommun, Dalarnas län, 780 69, Sverige", "name": "Camp"}, "Canada": {"type": "country", "importance": 0.34667666666666663, "lon": "-94.39243486368741", "place_rank": 4, "lat": "61.2481216994045", "boundingbox": ["41.6766000", "83.3134000", "-141.0027000", "-52.3399000"], "display_name": "Canada", "addresstype": "country", "name": "Canada"}, "Capri": {"type": "neighbourhood", "lon": 11.1189419, "lat": 58.9670287, "display_name": "Capri, Strömstads kommun, Västra Götalands län, 452 90, Sverige", "name": "Capri"}, "Carl": {"type": "grass", "lon": 13.14376753067812, "lat": 55.38088705, "display_name": "Carl Smiths grönyta, Kattebäck, Trelleborg, Trelleborgs kommun, Skåne län, Sverige", "name": "Carl"}, "Casino": {"type": "park", "lon": 15.000111823188401, "lat": 58.864615900000004, "display_name": "Casino parken, Åmmeberg, Askersunds kommun, Örebro län, Sverige", "name": "Casino"}, "Kastellholmen": {"type": "islet", "lon": 18.089373090253595, "lat": 59.32261795, "display_name": "Kastellholmen, Skeppsholmen, Norra innerstadens stadsdelsområde, Stockholm, Stockholms kommun, Stockholms län, Sverige", "name": "Kastellholmen"}, "Castle": {"type": "islet", "lon": 14.794363962213144, "lat": 56.941911250000004, "display_name": "Kronobergs slottsruin, Växjö, Växjö kommun, Kronobergs län, Sverige", "name": "Castle"}, "Center": {"type": "hamlet", "lon": 21.0808792, "lat": 67.891207, "display_name": "Esrange Space Center, Jukkasjärvi, Kiruna kommun, Norrbottens län, Sverige", "name": "Center"}, "Central": {"type": "recreation_ground", "lon": 12.39911780750683, "lat": 57.04098775, "display_name": "Centralparken, Tvååker, Varbergs kommun, Hallands län, Sverige", "name": "Central"}, "Centralen": {"type": "platform", "lon": 18.0569752459507, "lat": 59.33095341641555, "display_name": "Centralen, Klarabergsviadukten, Klara, Norrmalm, Norra innerstadens stadsdelsområde, Stockholm, Stockholms kommun, Stockholms län, 107 24, Sverige", "name": "Centralen"}, "Centralhotellet": {"type": "yes", "lon": 17.30748242212514, "lat": 62.3901161, "display_name": "Centralhotellet, Centralgatan, Stenstan, Sundsvalls tätortsområde, Sundsvalls Gustav Adolfs distrikt, Sundsvalls kommun, Västernorrlands län, 852 32, Sverige", "name": "Centralhotellet"}, "Centralstation": {"type": "pedestrian", "lon": 17.627033614267294, "lat": 59.1922196, "display_name": "Södertälje Centralstation, Tälje, Södertälje, Södertälje kommun, Stockholms län, 151 71, Sverige", "name": "Centralstation"}, "Centrum": {"type": "administrative", "lon": 11.99931085621497, "lat": 57.6998979, "display_name": "Centrum, Göteborgs Stad, Västra Götalands län, Sverige", "name": "Centrum"}, "Cha": {"type": "cafe", "lon": 18.0750625, "lat": 59.3117521, "display_name": "Mo Mo Cha SoFo, 47, Skånegatan, Skanstull, Södermalm, Södermalms stadsdelsområde, Stockholm, Stockholms kommun, Stockholms län, 116 62, Sverige", "name": "Cha"}, "Charlottenberg": {"type": "peak", "lon": 15.2861904, "lat": 58.830465, "display_name": "Charlottenberg, Motala kommun, Östergötlands län, 696 96, Sverige", "name": "Charlottenberg"}, "Charlottenborg": {"type": "peak", "lon": 16.5864909, "lat": 57.6534524, "display_name": "Charlottenborg, Västrum, Västerviks kommun, Kalmar län, 593 74, Sverige", "name": "Charlottenborg"}, "Charlottenburg": {"type": "hamlet", "lon": 16.4981215, "lat": 59.4371555, "display_name": "Charlottenburg, Eskilstuna, Eskilstuna kommun, Södermanlands län, 644 33, Sverige", "name": "Charlottenburg"}, "Charlottenlund": {"type": "hamlet", "lon": 12.2034182, "lat": 57.6835653, "display_name": "Charlottenlund, Landvetter, Härryda kommun, Västra Götalands län, 438 32, Sverige", "name": "Charlottenlund"}, "Chelsea": {"type": "clothes", "lon": 11.9703336, "lat": 57.7049756, "display_name": "Chelsea, Kungsgatan, Nordstaden, Inom Vallgraven, Centrum, Göteborg, Göteborgs Stad, Västra Götalands län, 411 08, Sverige", "name": "Chelsea"}, "Chicago": {"type": "apartments", "lon": 15.622624346809344, "lat": 60.6065296, "display_name": "Chicago, 39, Hyttgatan, Elsborg, Falun, Falu kommun, Dalarnas län, 791 73, Sverige", "name": "Chicago"}, "Chile": {"type": "country", "lon": -71.5578291906618, "lat": -37.85037277178626, "display_name": "Chile", "name": "Chile"}, "Kina": {"type": "isolated_dwelling", "importance": 0.10667666666666664, "lon": "18.9471698", "place_rank": 22, "lat": "65.0745892", "boundingbox": ["65.0745392", "65.0746392", "18.9471198", "18.9472198"], "display_name": "Kina, Malå sameby, Malå kommun, Västerbottens län, Sverige", "addresstype": "isolated_dwelling", "name": "Kina"}, "Christian": {"type": "city_block", "lon": 13.180789928536868, "lat": 55.72252855, "display_name": "Kung Christian, Oscarshem, Nöbbelöv, Norr, Lund, Lunds kommun, Skåne län, Sverige", "name": "Christian"}, "Cirkus": {"type": "recreation_ground", "lon": 15.272119425729993, "lat": 56.19116135, "display_name": "Cirkusplats, Risatorp, Bussemåla, Ronneby, Ronneby kommun, Blekinge län, Sverige", "name": "Cirkus"}, "Colombia": {"type": "country", "lon": -72.92744808141691, "lat": 4.654069438418573, "display_name": "Colombia", "name": "Colombia"}, "Columbia": {"type": "country", "lon": -72.92744808141691, "lat": 4.654069438418573, "display_name": "Colombia", "name": "Columbia"}, "Cub": {"type": "motorcycle", "lon": 18.696271, "lat": 64.5895749, "display_name": "Inlandets Maskin & Fritid AB, 5, Bergstigen, Norrmalm, Lycksele, Lycksele kommun, Västerbottens län, 921 45, Sverige", "name": "Cub"}, "Cypern": {"type": "country", "lon": 33.23154693342391, "lat": 35.11373952673406, "display_name": "Κύπρος - Kıbrıs", "name": "Cypern"}, "Daglösen": {"type": "lake", "lon": 14.195405097324251, "lat": 59.6658143, "display_name": "Daglösen, Filipstad, Filipstads kommun, Värmlands län, Sverige", "name": "Daglösen"}, "Dakota": {"type": "meadow", "lon": 18.283123445633187, "lat": 64.4160747, "display_name": "Dakota, Lycksele kommun, Västerbottens län, Sverige", "name": "Dakota"}, "Dala Järna": {"type": "village", "lon": 14.3679875, "lat": 60.5480476, "display_name": "Järna, Vansbro kommun, Dalarnas län, 786 92, Sverige", "name": "Dala Järna"}, "Dalagatan": {"type": "tertiary", "lon": 13.79192196794761, "lat": 58.280074365064586, "display_name": "Dalagatan, Borgunda, Borgunda distrikt, Dala, Falköpings kommun, Västra Götalands län, 521 62, Sverige", "name": "Dalagatan"}, "Dalarna": {"type": "administrative", "lon": 14.215122350542055, "lat": 61.060377849999995, "display_name": "Dalarnas län, Sverige", "name": "Dalarna"}, "Dalarnas": {"type": "administrative", "lon": 14.215122350542055, "lat": 61.060377849999995, "display_name": "Dalarnas län, Sverige", "name": "Dalarnas"}, "Dalarne": {"type": "administrative", "lon": 14.215122350542055, "lat": 61.060377849999995, "display_name": "Dalarnas län, Sverige", "name": "Dalarne"}, "Dalarö": {"type": "village", "lon": 18.4052397, "lat": 59.1335185, "display_name": "Dalarö, Haninge kommun, Stockholms län, 137 71, Sverige", "name": "Dalarö"}, "Dalarö Skans": {"type": "islet", "lon": 18.390094357509494, "lat": 59.11301595, "display_name": "Dalarö Skans, Haninge kommun, Stockholms län, Sverige", "name": "Dalarö Skans"}, "Dalsjön": {"type": "lake", "lon": 12.414197679414482, "lat": 59.16789205, "display_name": "Dalsjön, Bengtsfors kommun, Västra Götalands län, Sverige", "name": "Dalsjön"}, "Dalboda": {"type": "hamlet", "lon": 17.537342, "lat": 60.1108635, "display_name": "Dalboda, Uppsala kommun, Uppsala län, 743 72, Sverige", "name": "Dalboda"}, "Dalen": {"type": "suburb", "lon": 11.7384729, "lat": 57.7109011, "display_name": "Dalen, Hjuvik, Hisingen, Torslanda, Göteborgs Stad, Västra Götalands län, 423 39, Sverige", "name": "Dalen"}, "Dalkarlsån": {"type": "river", "lon": 20.813331791571606, "lat": 64.04577559554386, "display_name": "Dalkarlsån, Grans sameby, Robertsfors kommun, Västerbottens län, Sverige", "name": "Dalkarlsån"}, "Dalskärr": {"type": "isolated_dwelling", "lon": 12.5081971, "lat": 57.3007168, "display_name": "Dalskärr, Marks kommun, Västra Götalands län, 519 91, Sverige", "name": "Dalskärr"}, "Dallas": {"type": "residential", "lon": 17.071201340123817, "lat": 61.304071750000006, "display_name": "Dallas, Knektslätten, Söderhamn, Söderhamns kommun, Gävleborgs län, Sverige", "name": "Dallas"}, "Dalom": {"type": "hamlet", "lon": 18.0668763, "lat": 62.7467924, "display_name": "Dalom, Hemsö distrikt, Härnösands kommun, Västernorrlands län, Sverige", "name": "Dalom"}, "Dalsjöfors": {"type": "village", "lon": 13.1076868, "lat": 57.7213319, "display_name": "Dalsjöfors, Borås kommun, Västra Götalands län, 516 32, Sverige", "name": "Dalsjöfors"}, "Dalsland": {"type": "historic", "importance": 0.06667666666666666, "lon": "12.306726961722264", "place_rank": 25, "lat": "58.82512275", "boundingbox": ["58.3856542", "59.2636923", "11.6520030", "12.8996274"], "display_name": "Dalsland, Sverige", "addresstype": "historic", "name": "Dalsland"}, "Dalslands Kanal": {"type": "canal", "lon": 12.1487347, "lat": 59.146025, "display_name": "Dalslands Kanal, Sverige", "name": "Dalslands Kanal"}, "Dalsvallen": {"type": "isolated_dwelling", "lon": 13.5990304, "lat": 62.21406, "display_name": "Dalsvallen, Linsell distrikt, Härjedalens kommun, Jämtlands län, Sverige", "name": "Dalsvallen"}, "Dalbäcken": {"type": "hamlet", "lon": 13.9380942, "lat": 59.4614221, "display_name": "Dalbäcken, Karlstads kommun, Värmlands län, Sverige", "name": "Dalbäcken"}, "Dalvik": {"type": "suburb", "lon": 14.1298065, "lat": 57.7865115, "display_name": "Dalvik, Jönköping, Jönköpings kommun, Jönköpings län, 554 47, Sverige", "name": "Dalvik"}, "Dalby": {"type": "village", "lon": 13.3461589, "lat": 55.6646637, "display_name": "Dalby, Lunds kommun, Skåne län, 240 10, Sverige", "name": "Dalby"}, "Dalälven": {"type": "river", "lon": 16.4498376, "lat": 60.1754162, "display_name": "Dalälven, Sverige", "name": "Dalälven"}, "Damaskus": {"type": "city_block", "lon": 17.978728070860086, "lat": 59.30263495, "display_name": "Damaskus, Hägersten, Hägersten-Älvsjö stadsdelsområde, Stockholm, Stockholms kommun, Stockholms län, Sverige", "name": "Damaskus"}, "Ramfors": {"type": "hamlet", "lon": 15.8814674, "lat": 61.1756203, "display_name": "Ramfors, Ovanåkers kommun, Gävleborgs län, Sverige", "name": "Ramfors"}, "Dana Fjord": {"type": "bay", "lon": 11.691847653455206, "lat": 57.6697599, "display_name": "Dana fjord, Hisingen, Fotö, Öckerö kommun, Västra Götalands län, Sverige", "name": "Dana Fjord"}, "Danderyd": {"type": "administrative", "lon": 18.0358505, "lat": 59.4043647, "display_name": "Danderyds kommun, Stockholms län, Sverige", "name": "Danderyd"}, "Danmark": {"type": "country", "importance": 0.34667666666666663, "lon": "10.498352941696483", "place_rank": 4, "lat": "55.88284887823547", "boundingbox": ["54.4617000", "57.9347000", "7.7277000", "15.5249000"], "display_name": "Danmark", "addresstype": "country", "name": "Danmark"}, "Dannemora": {"type": "village", "lon": 17.8599065, "lat": 60.2032735, "display_name": "Dannemora, Östhammars kommun, Uppsala län, 748 30, Sverige", "name": "Dannemora"}, "Dans": {"type": "isolated_dwelling", "lon": 18.3098316, "lat": 57.408941, "display_name": "Dans, Gotlands kommun, Gotlands län, Sverige", "name": "Dans"}, "Danvikskanalen": {"type": "canal", "lon": 18.09503267578254, "lat": 59.306784183431624, "display_name": "Danvikskanalen, Södermalm, Södermalms stadsdelsområde, Stockholm, Stockholms kommun, Stockholms län, Sverige", "name": "Danvikskanalen"}, "Dee": {"type": "restaurant", "lon": 18.38468123316971, "lat": 59.324842149999995, "display_name": "Sawai Dee, 1, Odelbergs väg, Charlottendal, Gustavsberg, Värmdö kommun, Stockholms län, 134 40, Sverige", "name": "Dee"}, "Degerfors": {"type": "town", "lon": 14.4297309, "lat": 59.2361209, "display_name": "Degerfors, Degerfors kommun, Örebro län, 693 30, Sverige", "name": "Degerfors"}, "Degerön": {"type": "island", "lon": 22.67001189361701, "lat": 65.5508027, "display_name": "Degerön, Luleå kommun, Norrbottens län, Sverige", "name": "Degerön"}, "Delhi": {"type": "isolated_dwelling", "lon": 13.0953468, "lat": 56.1657173, "display_name": "Delhi, Klippans kommun, Skåne län, 264 31, Sverige", "name": "Delhi"}, "Delsbo": {"type": "village", "lon": 16.5554308, "lat": 61.7999994, "display_name": "Delsbo, Hudiksvalls kommun, Gävleborgs län, 824 70, Sverige", "name": "Delsbo"}, "Des": {"type": "locality", "lon": 20.5486365, "lat": 69.0599735, "display_name": "Treriksröset /Treriksrøysa Golddajávri/Kolmen valtakunnan rajapyykki, Kiruna kommun, Norrbottens län, Sverige", "name": "Des"}, "Dingelvik": {"type": "hamlet", "lon": 12.2374856, "lat": 58.9320647, "display_name": "Dingelvik, Bengtsfors kommun, Västra Götalands län, Sverige", "name": "Dingelvik"}, "Djibouti": {"type": "country", "lon": 42.7328558926946, "lat": 11.765989029233978, "display_name": "Djibouti جيبوتي", "name": "Djibouti"}, "Djurgård": {"type": "wood", "lon": 17.717759572108204, "lat": 59.340657199999995, "display_name": "Djurgård, Sundby, Ekerö kommun, Järfälla kommun, Stockholms län, Sverige", "name": "Djurgård"}, "Djurgården": {"type": "island", "lon": 18.121605694453358, "lat": 59.3251676, "display_name": "Djurgården, Norra innerstadens stadsdelsområde, Stockholm, Stockholms kommun, Stockholms län, Sverige", "name": "Djurgården"}, "Djurgårdens": {"type": "nature_reserve", "lon": 13.417724709838044, "lat": 58.6174462, "display_name": "Djurgårdens naturreservat, Blåsippsvägen, Björkhaga, Österplana distrikt, Hällekis, Götene kommun, Västra Götalands län, 533 74, Sverige", "name": "Djurgårdens"}, "Djurgårdsbrunn": {"type": "locality", "lon": 18.1364492, "lat": 59.3303074, "display_name": "Djurgårdsbrunn, Kaknäs, Ladugårdsgärdet, Norra innerstadens stadsdelsområde, Stockholm, Stockholms kommun, Stockholms län, 115 25, Sverige", "name": "Djurgårdsbrunn"}, "Djurgårdsbrunnsviken": {"type": "bay", "lon": 18.1240378, "lat": 59.3304587, "display_name": "Djurgårdsbrunnsviken, Djurgården, Norra innerstadens stadsdelsområde, Stockholm, Stockholms kommun, Stockholms län, 115 25, Sverige", "name": "Djurgårdsbrunnsviken"}, "Djursholm": {"type": "town", "lon": 18.0880625, "lat": 59.3973535, "display_name": "Djursholm, Danderyds kommun, Stockholms län, 182 69, Sverige", "name": "Djursholm"}, "Djursholms": {"type": "tertiary", "lon": 18.099453218457036, "lat": 59.43529301866168, "display_name": "Djursholmsvägen, Norskogen, Viggby kulle 1, Täby, Täby kommun, Stockholms län, 183 57, Sverige", "name": "Djursholms"}, "Djurön": {"type": "village", "lon": 16.3471657, "lat": 58.6292733, "display_name": "Djurön, Norrköpings kommun, Östergötlands län, 605 91, Sverige", "name": "Djurön"}, "Docksta": {"type": "village", "lon": 18.327456, "lat": 63.0573209, "display_name": "Docksta, Vibyggerå distrikt, Kramfors kommun, Västernorrlands län, 870 33, Sverige", "name": "Docksta"}, "Dockstafjärden": {"type": "bay", "lon": 18.3415034, "lat": 63.0291997, "display_name": "Dockstafjärden, Vibyggerå distrikt, Kramfors kommun, Västernorrlands län, 870 33, Sverige", "name": "Dockstafjärden"}, "Döve": {"type": "hamlet", "lon": 13.3985557, "lat": 57.9954226, "display_name": "Döve, Börstigs distrikt, Falköpings kommun, Västra Götalands län, Sverige", "name": "Döve"}, "Domnarvet": {"type": "dam", "lon": 15.453678294050803, "lat": 60.495651734000745, "display_name": "Domnarvet (damm), Domnarvets Järnverk, Borlänge, Borlänge kommun, Dalarnas län, 784 74, Sverige", "name": "Domnarvet"}, "Don": {"type": "isolated_dwelling", "lon": 15.3764018, "lat": 58.7377952, "display_name": "Don, Motala kommun, Östergötlands län, 591 90, Sverige", "name": "Don"}, "Donsö": {"type": "island", "lon": 11.803425037156693, "lat": 57.6015513, "display_name": "Donsö, Sydväst, Donsö, Göteborgs Stad, Västra Götalands län, 430 82, Sverige", "name": "Donsö"}, "Döltorp": {"type": "hamlet", "lon": 11.3415227, "lat": 58.8978308, "display_name": "Döltorp, Strömstads kommun, Västra Götalands län, 452 94, Sverige", "name": "Döltorp"}, "Dorotea": {"type": "town", "lon": 16.4083118, "lat": 64.2619222, "display_name": "Dorotea, Dorotea kommun, Västerbottens län, 917 32, Sverige", "name": "Dorotea"}, "Drottningholm Palace": {"type": "attraction", "lon": 17.886891502416663, "lat": 59.3216277, "display_name": "Drottningholms slott, Ekerövägen, Malmen, Ängsholm, Drottningholm, Ekerö kommun, Sundbybergs kommun, Stockholms län, 168 50, Sverige", "name": "Drottningholm Palace"}, "Dovern": {"type": "lake", "lon": 15.809976121196666, "lat": 58.6686304, "display_name": "Dovern, Finspång, Finspångs kommun, Östergötlands län, Sverige", "name": "Dovern"}, "Doverstorp": {"type": "hamlet", "lon": 15.8154952, "lat": 58.6480006, "display_name": "Doverstorp, Finspångs kommun, Östergötlands län, Sverige", "name": "Doverstorp"}, "Draken": {"type": "neighbourhood", "lon": 16.373469836416113, "lat": 56.52524315, "display_name": "Draken, Mörbylånga, Mörbylånga kommun, Kalmar län, Sverige", "name": "Draken"}, "Dramaten": {"type": "city_block", "lon": 14.1775954, "lat": 57.7800803, "display_name": "Dramaten, Kålgården, Jönköping, Jönköpings kommun, Jönköpings län, 553 22, Sverige", "name": "Dramaten"}, "Dammen": {"type": "suburb", "lon": 12.5336569, "lat": 57.9174264, "display_name": "Dammen, Alingsås distrikt, Alingsås, Alingsås kommun, Västra Götalands län, 441 41, Sverige", "name": "Dammen"}, "Dresden": {"type": "isolated_dwelling", "lon": 14.8374385, "lat": 59.0535812, "display_name": "Dresden, Genstorp, Hallsbergs kommun, Örebro län, Sverige", "name": "Dresden"}, "Drottninggatan": {"type": "tertiary", "lon": 12.671739068412176, "lat": 56.070318708794815, "display_name": "Drottninggatan, Norr, Helsingborg, Helsingborgs kommun, Skåne län, 254 33, Sverige", "name": "Drottninggatan"}, "Drottningholm": {"type": "village", "lon": 17.8873327, "lat": 59.324925, "display_name": "Drottningholm, Ekerö kommun, Sundbybergs kommun, Stockholms län, 168 50, Sverige", "name": "Drottningholm"}, "Drottningholms": {"type": "park", "lon": 17.87737332532779, "lat": 59.323180199999996, "display_name": "Engelska parken, Kanton, Drottningholm, Ekerö kommun, Sundbybergs kommun, Stockholms län, Sverige", "name": "Drottningholms"}, "Drottningtorget": {"type": "park", "lon": 15.636209092097065, "lat": 58.41069915, "display_name": "Drottningtorget, Tannefors, Linköpings Sankt Lars, Linköping, Linköpings kommun, Östergötlands län, Sverige", "name": "Drottningtorget"}, "Dublin": {"type": "pub", "lon": 15.6295743, "lat": 60.6064309, "display_name": "Dublin Bar & Restaurang, 3, Falugatan, Elsborg, Falun, Falu kommun, Dalarnas län, 791 71, Sverige", "name": "Dublin"}, "Dunken": {"type": "isolated_dwelling", "lon": 15.809353, "lat": 56.3116546, "display_name": "Dunken, Karlskrona kommun, Blekinge län, Sverige", "name": "Dunken"}, "Dun": {"type": "residential", "lon": 21.221200847695293, "lat": 64.69269428180155, "display_name": "Dungatan, Sävenäs, Skelleftehamn, Skellefteå kommun, Västerbottens län, 932 33, Sverige", "name": "Dun"}, "Dundret": {"type": "peak", "lon": 20.5673824, "lat": 67.0914911, "display_name": "Dundret, Gällivare kommun, Norrbottens län, Sverige", "name": "Dundret"}, "Dungårde": {"type": "hamlet", "lon": 18.5348636, "lat": 57.5437699, "display_name": "Dungårde, Gotlands kommun, Gotlands län, 622 52, Sverige", "name": "Dungårde"}, "Dunker": {"type": "place_of_worship", "lon": 16.815291840957308, "lat": 59.164424749999995, "display_name": "Dunker Kyrka, D 883, Rävhagen, Flens kommun, Södermanlands län, Sverige", "name": "Dunker"}, "Duved": {"type": "village", "lon": 12.9198927, "lat": 63.3941812, "display_name": "Duved, Åre kommun, Jämtlands län, Sverige", "name": "Duved"}, "Duvnäs": {"type": "suburb", "lon": 18.2047474, "lat": 59.3053097, "display_name": "Saltsjö-Duvnäs, Nacka, Nacka kommun, Stockholms län, 131 50, Sverige", "name": "Duvnäs"}, "Dyllen": {"type": "peak", "lon": 12.3080687, "lat": 62.0268718, "display_name": "Dyllen, Älvdalens kommun, Dalarnas län, Sverige", "name": "Dyllen"}, "Dynamo": {"type": "unclassified", "lon": 15.057324398819969, "lat": 58.55849217620583, "display_name": "Dynamovägen, Sättran, Motala, Motala kommun, Östergötlands län, 591 61, Sverige", "name": "Dynamo"}, "Fagerfors": {"type": "hamlet", "lon": 15.1566994, "lat": 56.4450562, "display_name": "Fagerfors, Tingsryds kommun, Kronobergs län, Sverige", "name": "Fagerfors"}, "Degerhamn": {"type": "village", "lon": 16.4097883, "lat": 56.3564029, "display_name": "Degerhamn, Mörbylånga kommun, Kalmar län, Sverige", "name": "Degerhamn"}, "Döderhult": {"type": "locality", "lon": 16.4024162, "lat": 57.2683906, "display_name": "Döderhult, Klockarebacken, Norrby, Oskarshamn, Oskarshamns kommun, Kalmar län, 572 51, Sverige", "name": "Döderhult"}, "Oskarshamn": {"type": "town", "lon": 16.4443478, "lat": 57.2632811, "display_name": "Oskarshamn, Oskarshamns kommun, Kalmar län, 572 24, Sverige", "name": "Oskarshamn"}, "Idre": {"type": "village", "lon": 12.7168462, "lat": 61.8584278, "display_name": "Idre, Älvdalens kommun, Dalarnas län, 797 71, Sverige", "name": "Idre"}, "East": {"type": "construction", "lon": 21.065886241673777, "lat": 64.74741385, "display_name": "Site East, Morö Backe, Skellefteå, Skellefteå kommun, Västerbottens län, Sverige", "name": "East"}, "Ecuador": {"type": "country", "lon": -78.8093718356303, "lat": -1.5331279750250264, "display_name": "Ecuador", "name": "Ecuador"}, "Eden": {"type": "hamlet", "lon": 18.1799954, "lat": 62.8761993, "display_name": "Eden, Nora distrikt, Kramfors kommun, Västernorrlands län, Sverige", "name": "Eden"}, "Odensvik": {"type": "neighbourhood", "lon": 14.6637128, "lat": 63.1593558, "display_name": "Odensvik, Odensala, Östersund, Östersunds kommun, Jämtlands län, 831 46, Sverige", "name": "Odensvik"}, "Edesnäs": {"type": "hamlet", "lon": 18.2710025, "lat": 58.9547088, "display_name": "Edesnäs, Haninge kommun, Stockholms län, Sverige", "name": "Edesnäs"}, "Edsby": {"type": "isolated_dwelling", "lon": 17.8687075, "lat": 59.5114075, "display_name": "Edsby, Ed, Upplands Väsby, Upplands Väsby kommun, Stockholms län, 194 47, Sverige", "name": "Edsby"}, "Edsbyn": {"type": "town", "lon": 15.8181755, "lat": 61.3774428, "display_name": "Edsbyn, Ovanåkers kommun, Gävleborgs län, 828 33, Sverige", "name": "Edsbyn"}, "Edsvalla": {"type": "village", "lon": 13.2103442, "lat": 59.4369756, "display_name": "Edsvalla, Karlstads kommun, Värmlands län, 660 42, Sverige", "name": "Edsvalla"}, "Edsviken": {"type": "lake", "lon": 17.997877082859794, "lat": 59.410905299999996, "display_name": "Edsviken, Danderyds kommun, Solna kommun, Stockholms län, Sverige", "name": "Edsviken"}, "Edsängen": {"type": "neighbourhood", "lon": 17.958426, "lat": 59.4520158, "display_name": "Edsängen, Edsberg, Sollentuna kommun, Stockholms län, 192 54, Sverige", "name": "Edsängen"}, "Egypt": {"type": "country", "lon": 29.419432102858828, "lat": 26.88450779013931, "display_name": "مصر", "name": "Egypt"}, "Egypten": {"type": "isolated_dwelling", "importance": 0.10667666666666664, "lon": "17.8663981", "place_rank": 22, "lat": "59.6895418", "boundingbox": ["59.6894918", "59.6895918", "17.8663481", "17.8664481"], "display_name": "Egypten, Sigtuna kommun, Stockholms län, 195 92, Sverige", "addresstype": "isolated_dwelling", "name": "Egypten"},